{"id":"ID01004","shopName":"Żabka","city":"Koszalin","address":"Waryńskiego 20","lat":54.190971,"lon":16.199839},{"id":"ID01008","shopName":"Żabka","city":"Łódź","address":"P.O.W. 40 lok. 1-6","lat":51.77066,"lon":19.467051},{"id":"ID01006","shopName":"Żabka","city":"Poznań","address":"Wielka 7","lat":52.408806,"lon":16.935648},{"id":"ID01016","shopName":"Żabka","city":"Leszno","address":"Wolności 10","lat":51.844681,"lon":16.575686},{"id":"ID01007","shopName":"Żabka","city":"Poznań","address":"Poznańska 40 lok. 3","lat":52.413898,"lon":16.909342},{"id":"ID01017","shopName":"Żabka","city":"Twardogóra","address":"Ratuszowa 13","lat":51.366235,"lon":17.46668},{"id":"ID01012","shopName":"Żabka","city":"Łódź","address":"Zachodnia 20","lat":51.782852,"lon":19.450638},{"id":"ID01015","shopName":"Żabka","city":"Warszawa","address":"Międzyborska 50","lat":52.236685,"lon":21.082289},{"id":"ID01003","shopName":"Żabka","city":"Gdynia","address":"Buraczana 25","lat":54.473354,"lon":18.505337},{"id":"ID01020","shopName":"Żabka","city":"Gliwice","address":"Jana Pawła II 13","lat":50.292149,"lon":18.667126},{"id":"ID01027","shopName":"Żabka","city":"Legnica","address":"Matejki 6","lat":51.204624,"lon":16.15069},{"id":"ID01022","shopName":"Żabka","city":"Gorzów Wielkopolski","address":"Łokietka 1","lat":52.733261,"lon":15.232065},{"id":"ID01018","shopName":"Żabka","city":"Wrocław","address":"Karola Miarki 5//A","lat":51.125748,"lon":17.052259},{"id":"ID01032","shopName":"Żabka","city":"Pruszków","address":"Kraszewskiego 28","lat":52.162756,"lon":20.810549},{"id":"ID01028","shopName":"Żabka","city":"Pszczyna","address":"B. Śmiałego 19a","lat":49.966885,"lon":18.946857},{"id":"ID01031","shopName":"Żabka","city":"Bolesławiec","address":"Asnyka 20","lat":51.261351,"lon":15.572882},{"id":"ID01035","shopName":"Żabka","city":"Radom","address":"Rwańska 18","lat":51.402049,"lon":21.146321},{"id":"ID01043","shopName":"Żabka","city":"Wrocław","address":"Bezpieczna 4a","lat":51.14151,"lon":17.025915},{"id":"ID01041","shopName":"Żabka","city":"Szczecin","address":"Miedziana 19 lok. 1A","lat":53.439987,"lon":14.570749},{"id":"ID01034","shopName":"Żabka","city":"Bielsko-biała","address":"Cieszyńska 132","lat":49.814512,"lon":19.018412},{"id":"ID01033","shopName":"Żabka","city":"Strzelce Opolskie","address":"Krakowska 25","lat":50.509296,"lon":18.305039},{"id":"ID01047","shopName":"Żabka","city":"Poznań","address":"Sikorskiego 1a","lat":52.39225,"lon":16.919254},{"id":"ID01046","shopName":"Żabka","city":"Leszno","address":"Świętokrzyska 5","lat":51.840675,"lon":16.573536},{"id":"ID01048","shopName":"Żabka","city":"Poznań","address":"Mickiewicza 26","lat":52.409962,"lon":16.910744},{"id":"ID01045","shopName":"Żabka","city":"Łódź","address":"Rewolucji 4","lat":51.774952,"lon":19.456125},{"id":"ID01042","shopName":"Żabka","city":"Zakopane","address":"Zborowskiego 4a//2","lat":49.295689,"lon":19.951614},{"id":"ID01044","shopName":"Żabka","city":"Karpacz","address":"Konstytucji 3 Maja 47a","lat":50.77457,"lon":15.752752},{"id":"ID01040","shopName":"Żabka","city":"Tychy","address":"Aleja Bielska 85","lat":50.120216,"lon":18.984779},{"id":"ID01051","shopName":"Żabka","city":"Głogów","address":"Plac 1000-lecia 10","lat":51.665513,"lon":16.081836},{"id":"ID01052","shopName":"Żabka","city":"Szczecin","address":"Śląska 39//U2","lat":53.4318,"lon":14.547458},{"id":"ID01057","shopName":"Żabka","city":"Nakło Nad Notecią","address":"Bydgoska 38","lat":53.137936,"lon":17.603765},{"id":"ID01054","shopName":"Żabka","city":"Gdańsk","address":"Ks. Sychty 10a","lat":54.386238,"lon":18.581911},{"id":"ID01062","shopName":"Żabka","city":"Poznań","address":"Wrocławska 23","lat":52.406254,"lon":16.932964},{"id":"ID01064","shopName":"Żabka","city":"Łódź","address":"Żwirki 8","lat":51.755718,"lon":19.457748},{"id":"ID03343","shopName":"Żabka","city":"Gdańsk","address":"ul. Łucznicza 9//U1","lat":54.307575,"lon":18.591944},{"id":"ID03344","shopName":"Żabka","city":"Rybnik","address":"ul. Dworek 9","lat":50.096867,"lon":18.535869},{"id":"ID03341","shopName":"Żabka","city":"Poznań","address":"ul. Wodna 22","lat":52.407266,"lon":16.935976},{"id":"ID03345","shopName":"Żabka","city":"Poznań","address":"ul. Hetmańska 1//U25","lat":52.393109,"lon":16.886761},{"id":"ID03350","shopName":"Żabka","city":"Wąsosz","address":"ul. Świerczewskiego 28","lat":51.562992,"lon":16.692127},{"id":"ID03348","shopName":"Żabka","city":"Warszawa","address":"ul. Milenijna 45G//U1","lat":52.323608,"lon":20.960474},{"id":"ID03349","shopName":"Żabka","city":"Sosnowiec","address":"ul. Pawia 9","lat":50.284327,"lon":19.110041},{"id":"ID03353","shopName":"Żabka","city":"Toruń","address":"ul. Mickiewicza 116","lat":53.012029,"lon":18.576526},{"id":"ID03359","shopName":"Żabka","city":"Szczecin","address":"Al. Wojska Polskiego 13a//U1","lat":53.427313,"lon":14.54541},{"id":"ID03354","shopName":"Żabka","city":"Koło","address":"ul. Toruńska 6","lat":52.199359,"lon":18.636971},{"id":"ID03355","shopName":"Żabka","city":"Poznań","address":"ul. Wspólna 27","lat":52.377397,"lon":16.909108},{"id":"ID03352","shopName":"Żabka","city":"Zielona Góra","address":"Przylep-22 Lipca 62","lat":51.968114,"lon":15.449878},{"id":"ID03358","shopName":"Żabka","city":"Szczecin","address":"ul. Kazimierza Królewicza 2R//U1","lat":53.442724,"lon":14.560962},{"id":"ID03360","shopName":"Żabka","city":"Lubin","address":"ul. Drzymały 1a","lat":51.400724,"lon":16.206296},{"id":"ID03346","shopName":"Żabka","city":"Wronki","address":"ul. Partyzantów 16","lat":52.707438,"lon":16.383148},{"id":"ID03363","shopName":"Żabka","city":"Środa Wielkopolska","address":"os. Jagiellońskie 41//1","lat":52.222514,"lon":17.272168},{"id":"ID03364","shopName":"Żabka","city":"Czerwionka-leszczyny","address":"ul. Ligonia 8//8B","lat":50.141291,"lon":18.630017},{"id":"ID03367","shopName":"Żabka","city":"Poznań","address":"ul. Bukowska 11","lat":52.406725,"lon":16.909808},{"id":"ID03357","shopName":"Żabka","city":"Bydgoszcz","address":"ul. GOPR 46","lat":53.160391,"lon":18.165577},{"id":"ID03362","shopName":"Żabka","city":"Elbląg","address":"ul. Kosynierów Gdyńskich 30//1","lat":54.161114,"lon":19.410131},{"id":"ID03361","shopName":"Żabka","city":"Warszawa","address":"ul. Gen. Okulickiego 11A//101","lat":52.229008,"lon":21.100673},{"id":"ID03371","shopName":"Żabka","city":"Toruń","address":"ul. Rydygiera 16H//2","lat":53.026261,"lon":18.656233},{"id":"ID03370","shopName":"Żabka","city":"Częstochowa","address":"ul. Waszyngtona 22","lat":50.809826,"lon":19.113557},{"id":"ID03366","shopName":"Żabka","city":"Płock","address":"ul. Królewiecka 15A//1","lat":52.546799,"lon":19.694201},{"id":"ID03369","shopName":"Żabka","city":"Szczecinek","address":"ul. Spółdzielcza 6","lat":53.705324,"lon":16.704031},{"id":"ID03373","shopName":"Żabka","city":"Elbląg","address":"ul. Słoneczna 24","lat":54.163528,"lon":19.409887},{"id":"ID03368","shopName":"Żabka","city":"Kielce","address":"ul. Na Stoku 50B//U1","lat":50.895693,"lon":20.666724},{"id":"ID03375","shopName":"Żabka","city":"Świebodzin","address":"Pl. Wolności 1//1A","lat":52.247278,"lon":15.532616},{"id":"ID03376","shopName":"Żabka","city":"Łódź","address":"ul. Legionów 76","lat":51.773472,"lon":19.43975},{"id":"ID03377","shopName":"Żabka","city":"Odolanów","address":"Pl. Kościuszki 6","lat":51.574524,"lon":17.671741},{"id":"ID03374","shopName":"Żabka","city":"Mława","address":"ul. Padlewskiego 30//3","lat":53.116207,"lon":20.385907},{"id":"ID03378","shopName":"Żabka","city":"Łódź","address":"ul. Tybury 1b","lat":51.785765,"lon":19.433987},{"id":"ID03379","shopName":"Żabka","city":"Puszczykowo","address":"ul. Dworcowa 27","lat":52.27149,"lon":16.864848},{"id":"ID03382","shopName":"Żabka","city":"Pogórze","address":"ul. Teodora Śliwińskiego 8//5","lat":54.565842,"lon":18.490591},{"id":"ID03381","shopName":"Żabka","city":"Kielce","address":"ul. Wrzosowa 88","lat":50.845348,"lon":20.640201},{"id":"ID03384","shopName":"Żabka","city":"Biskupice","address":"ul. Biskupice 258","lat":49.972104,"lon":20.128138},{"id":"ID03383","shopName":"Żabka","city":"Poznań","address":"ul. Gdyńska 32//Bałtycka 38","lat":52.425976,"lon":16.978656},{"id":"ID03386","shopName":"Żabka","city":"Częstochowa","address":"ul. Powstańców Warszawy 147","lat":50.760031,"lon":19.063103},{"id":"ID03385","shopName":"Żabka","city":"Poznań","address":"ul. E. Orzeszkowej 2","lat":52.402625,"lon":16.899822},{"id":"ID03387","shopName":"Żabka","city":"Wrocław","address":"ul. Jedności Narodowej 61//1A","lat":51.120075,"lon":17.040252},{"id":"ID03389","shopName":"Żabka","city":"Głogów","address":"ul. Grodzka 5","lat":51.664303,"lon":16.08957},{"id":"ID03394","shopName":"Żabka","city":"Rybnik","address":"ul. Wolna 23","lat":50.095968,"lon":18.585544},{"id":"ID03396","shopName":"Żabka","city":"Poznań","address":"ul. Ścinawska 80a","lat":52.392957,"lon":16.837652},{"id":"ID03388","shopName":"Żabka","city":"Oborniki","address":"ul. Armii Krajowej 10A","lat":52.651222,"lon":16.793343},{"id":"ID03392","shopName":"Żabka","city":"Piotrków Trybunalski","address":"al. Armii Krajowej 15","lat":51.411808,"lon":19.676846},{"id":"ID03402","shopName":"Żabka","city":"Gdańsk","address":"ul. Drzewieckiego 9//3","lat":54.393917,"lon":18.612034},{"id":"ID03399","shopName":"Żabka","city":"Wejherowo","address":"ul. Sobieskiego 269","lat":54.60296,"lon":18.224839},{"id":"ID03395","shopName":"Żabka","city":"Ruda Śląska","address":"ul. Jankowskiego 8a","lat":50.270716,"lon":18.860216},{"id":"ID03401","shopName":"Żabka","city":"Częstochowa","address":"ul. Zamenhofa 17//19","lat":50.783418,"lon":19.147382},{"id":"ID03410","shopName":"Żabka","city":"Andrespol","address":"ul. Rokicińska 123","lat":51.725465,"lon":19.639074},{"id":"ID03406","shopName":"Żabka","city":"Ustroń","address":"ul. Daszyńskiego 73","lat":49.73031,"lon":18.805311},{"id":"ID03342","shopName":"Żabka","city":"Ostrołęka","address":"ul. Kilińskiego 42//1B","lat":53.081323,"lon":21.569525},{"id":"ID03403","shopName":"Żabka","city":"Pakość","address":"ul. Szeroka 4 i 6","lat":52.805774,"lon":18.090409},{"id":"ID03407","shopName":"Żabka","city":"Wrocław","address":"ul. Krupnicza 3//1C","lat":51.108426,"lon":17.02695},{"id":"ID03405","shopName":"Żabka","city":"Rzepin","address":"ul. Księdza Stanisława Kusiaka 33","lat":52.344724,"lon":14.836885},{"id":"ID03411","shopName":"Żabka","city":"Legionowo","address":"ul. Zegrzyńska 81A//U1","lat":52.40289,"lon":20.9439},{"id":"ID03412","shopName":"Żabka","city":"Stęszew","address":"ul. Mosińska 4","lat":52.280432,"lon":16.705483},{"id":"ID03409","shopName":"Żabka","city":"Zamość","address":"ul. Piłsudskiego 53//1","lat":50.729403,"lon":23.250951},{"id":"ID03408","shopName":"Żabka","city":"Kolbuszowa","address":"ul. Bytnara 35//37 lok. nr 1","lat":50.243558,"lon":21.770466},{"id":"ID03404","shopName":"Żabka","city":"Dębienko","address":"ul. Generała Sikorskiego 24","lat":52.290291,"lon":16.725183},{"id":"ID03413","shopName":"Żabka","city":"Gdańsk","address":"ul. Słonimskiego 1//62","lat":54.383707,"lon":18.58906},{"id":"ID03419","shopName":"Żabka","city":"Łódź","address":"ul. Pryncypalna 61 lok. 1//3","lat":51.723064,"lon":19.47149},{"id":"ID03420","shopName":"Żabka","city":"Piechowice","address":"ul. Kryształowa 12b","lat":50.847504,"lon":15.60672},{"id":"ID03418","shopName":"Żabka","city":"Kielce","address":"ul. Ściegiennego 81","lat":50.852454,"lon":20.624337},{"id":"ID03416","shopName":"Żabka","city":"Ustka","address":"ul. Kilińskiego 4//1A","lat":54.584415,"lon":16.858393},{"id":"ID03427","shopName":"Żabka","city":"Warszawa","address":"ul. Nowodworska 13A","lat":52.32125,"lon":20.939423},{"id":"ID03421","shopName":"Żabka","city":"Poznań","address":"ul. Międzyborska 63//7","lat":52.386563,"lon":16.855722},{"id":"ID03423","shopName":"Żabka","city":"Ruda Śląska","address":"ul. Górnośląska 9//4","lat":50.270173,"lon":18.881897},{"id":"ID03415","shopName":"Żabka","city":"Kraków","address":"ul. Przybyszewskiego 71//LUII","lat":50.071974,"lon":19.895215},{"id":"ID03422","shopName":"Żabka","city":"Zielona Góra","address":"ul. Obywatelska 29 AB","lat":51.951852,"lon":15.503594},{"id":"ID03434","shopName":"Żabka","city":"Łódź","address":"ul. Gdańska 10","lat":51.776578,"lon":19.447895},{"id":"ID03425","shopName":"Żabka","city":"Warszawa","address":"ul. Kolejowa 47//U16","lat":52.226324,"lon":20.983039},{"id":"ID03433","shopName":"Żabka","city":"Lubin","address":"ul. Zwierzyckiego 31","lat":51.389033,"lon":16.216443},{"id":"ID03426","shopName":"Żabka","city":"Gdańsk","address":"ul. Gościnna 5","lat":54.322815,"lon":18.631723},{"id":"ID03435","shopName":"Żabka","city":"Strzałków","address":"ul. Kopernika 103 A","lat":51.050705,"lon":19.498796},{"id":"ID03429","shopName":"Żabka","city":"Gliwice","address":"ul. Daszyńskiego 165","lat":50.287609,"lon":18.634399},{"id":"ID03445","shopName":"Żabka","city":"Gdynia","address":"ul. Warszawska 66","lat":54.513388,"lon":18.531652},{"id":"ID03441","shopName":"Żabka","city":"Cisiec","address":"ul. Wyszyńskiego 201","lat":49.5833,"lon":19.10222},{"id":"ID03444","shopName":"Żabka","city":"Gdynia","address":"ul. Kapitańska 20","lat":54.523645,"lon":18.516193},{"id":"ID03440","shopName":"Żabka","city":"Proszowice","address":"ul. Mikołaja Reja 4a","lat":50.19163,"lon":20.29377},{"id":"ID03446","shopName":"Żabka","city":"Łódź","address":"Konstantego Ciołkowskiego 2AA","lat":51.729799,"lon":19.458203},{"id":"ID03448","shopName":"Żabka","city":"Milicz","address":"Lwowska 5","lat":51.531095,"lon":17.275183},{"id":"ID03424","shopName":"Żabka","city":"Warszawa","address":"ul. Słomińskiego 19//501","lat":52.254775,"lon":20.985037},{"id":"ID03432","shopName":"Żabka","city":"Konin","address":"ul. Matejki 18A","lat":52.242901,"lon":18.273377},{"id":"ID03442","shopName":"Żabka","city":"Gdańsk","address":"ul. Worcella 2A","lat":54.341782,"lon":18.625902},{"id":"ID03437","shopName":"Żabka","city":"Warszawa","address":"ul. Puławska 117A//2,3,4 i 5","lat":52.186956,"lon":21.025163},{"id":"ID03436","shopName":"Żabka","city":"Łódź","address":"ul. Kilińskiego 172","lat":51.755244,"lon":19.471453},{"id":"ID03428","shopName":"Żabka","city":"Piotrków Trybunalski","address":"ul. Górna 12","lat":51.404683,"lon":19.681594},{"id":"ID03438","shopName":"Żabka","city":"Świdnik","address":"ul. Wyszyńskiego 51","lat":51.210448,"lon":22.695489},{"id":"ID03443","shopName":"Żabka","city":"Gdynia","address":"ul. Legionów 92","lat":54.498985,"lon":18.54171},{"id":"ID03455","shopName":"Żabka","city":"Mszana","address":"1 Maja 88","lat":49.969372,"lon":18.527637},{"id":"ID03447","shopName":"Żabka","city":"Września","address":"ul. Kosynierów 19//1","lat":52.330118,"lon":17.571869},{"id":"ID03454","shopName":"Żabka","city":"Wrocław","address":"Maślicka 2 lok. F3 i F4","lat":51.146934,"lon":16.948483},{"id":"ID03457","shopName":"Żabka","city":"Darłowo","address":"ul. Henryka Wieniawskiego 17B","lat":54.422593,"lon":16.41714},{"id":"ID03456","shopName":"Żabka","city":"Kędzierzyn-koźle","address":"Kłodnicka 8//3","lat":50.347575,"lon":18.169384},{"id":"ID03464","shopName":"Żabka","city":"Wrocław","address":"Oławska 3-5","lat":51.10881,"lon":17.033492},{"id":"ID03459","shopName":"Żabka","city":"Kielce","address":"Ul. Wojska Polskiego 60","lat":50.85649,"lon":20.636958},{"id":"ID03450","shopName":"Żabka","city":"Poznań","address":"Rynarzewska 3C//110","lat":52.390403,"lon":16.877194},{"id":"ID03453","shopName":"Żabka","city":"Częstochowa","address":"Ul. Kilińskiego 140","lat":50.825232,"lon":19.112061},{"id":"ID03462","shopName":"Żabka","city":"Sieradz","address":"Stacheckiego -Koliba 1A i 1B","lat":51.58696,"lon":18.718428},{"id":"ID03449","shopName":"Żabka","city":"Częstochowa","address":"Szajnowicza Iwanowa 75//1","lat":50.830647,"lon":19.105205},{"id":"ID03461","shopName":"Żabka","city":"Wrocław","address":"Ul. Augustowska 70 //Reszelska 1 lok","lat":51.151699,"lon":16.93467},{"id":"ID03465","shopName":"Żabka","city":"Janikowo","address":"Główna 27 a","lat":52.752888,"lon":18.106667},{"id":"ID03463","shopName":"Żabka","city":"Płock","address":"Armii Krajowej 34//U7 i 1","lat":52.544757,"lon":19.759917},{"id":"ID03460","shopName":"Żabka","city":"Pruszcz Gdański","address":"Rogozinskiego 6S1","lat":54.270665,"lon":18.623885},