{"id":"ID01004","shopName":"Żabka","city":"Koszalin","address":"Waryńskiego 20","lat":54.190971,"lon":16.199839},{"id":"ID01008","shopName":"Żabka","city":"Łódź","address":"P.O.W. 40 lok. 1-6","lat":51.77066,"lon":19.467051},{"id":"ID01006","shopName":"Żabka","city":"Poznań","address":"Wielka 7","lat":52.408806,"lon":16.935648},{"id":"ID01016","shopName":"Żabka","city":"Leszno","address":"Wolności 10","lat":51.844681,"lon":16.575686},{"id":"ID01007","shopName":"Żabka","city":"Poznań","address":"Poznańska 40 lok. 3","lat":52.413898,"lon":16.909342},{"id":"ID01017","shopName":"Żabka","city":"Twardogóra","address":"Ratuszowa 13","lat":51.366235,"lon":17.46668},{"id":"ID01012","shopName":"Żabka","city":"Łódź","address":"Zachodnia 20","lat":51.782852,"lon":19.450638},{"id":"ID01015","shopName":"Żabka","city":"Warszawa","address":"Międzyborska 50","lat":52.236685,"lon":21.082289},{"id":"ID01003","shopName":"Żabka","city":"Gdynia","address":"Buraczana 25","lat":54.473354,"lon":18.505337},{"id":"ID01020","shopName":"Żabka","city":"Gliwice","address":"Jana Pawła II 13","lat":50.292149,"lon":18.667126},{"id":"ID01027","shopName":"Żabka","city":"Legnica","address":"Matejki 6","lat":51.204624,"lon":16.15069},{"id":"ID01022","shopName":"Żabka","city":"Gorzów Wielkopolski","address":"Łokietka 1","lat":52.733261,"lon":15.232065},{"id":"ID01018","shopName":"Żabka","city":"Wrocław","address":"Karola Miarki 5//A","lat":51.125748,"lon":17.052259},{"id":"ID01032","shopName":"Żabka","city":"Pruszków","address":"Kraszewskiego 28","lat":52.162756,"lon":20.810549},{"id":"ID01028","shopName":"Żabka","city":"Pszczyna","address":"B. Śmiałego 19a","lat":49.966885,"lon":18.946857},{"id":"ID01031","shopName":"Żabka","city":"Bolesławiec","address":"Asnyka 20","lat":51.261351,"lon":15.572882},{"id":"ID01035","shopName":"Żabka","city":"Radom","address":"Rwańska 18","lat":51.402049,"lon":21.146321},{"id":"ID01043","shopName":"Żabka","city":"Wrocław","address":"Bezpieczna 4a","lat":51.14151,"lon":17.025915},{"id":"ID01041","shopName":"Żabka","city":"Szczecin","address":"Miedziana 19 lok. 1A","lat":53.439987,"lon":14.570749},{"id":"ID01034","shopName":"Żabka","city":"Bielsko-biała","address":"Cieszyńska 132","lat":49.814512,"lon":19.018412},{"id":"ID01033","shopName":"Żabka","city":"Strzelce Opolskie","address":"Krakowska 25","lat":50.509296,"lon":18.305039},{"id":"ID01047","shopName":"Żabka","city":"Poznań","address":"Sikorskiego 1a","lat":52.39225,"lon":16.919254},{"id":"ID01046","shopName":"Żabka","city":"Leszno","address":"Świętokrzyska 5","lat":51.840675,"lon":16.573536},{"id":"ID01048","shopName":"Żabka","city":"Poznań","address":"Mickiewicza 26","lat":52.409962,"lon":16.910744},{"id":"ID01045","shopName":"Żabka","city":"Łódź","address":"Rewolucji 4","lat":51.774952,"lon":19.456125},{"id":"ID01042","shopName":"Żabka","city":"Zakopane","address":"Zborowskiego 4a//2","lat":49.295689,"lon":19.951614},{"id":"ID01044","shopName":"Żabka","city":"Karpacz","address":"Konstytucji 3 Maja 47a","lat":50.77457,"lon":15.752752},{"id":"ID01040","shopName":"Żabka","city":"Tychy","address":"Aleja Bielska 85","lat":50.120216,"lon":18.984779},{"id":"ID01051","shopName":"Żabka","city":"Głogów","address":"Plac 1000-lecia 10","lat":51.665513,"lon":16.081836},{"id":"ID01052","shopName":"Żabka","city":"Szczecin","address":"Śląska 39//U2","lat":53.4318,"lon":14.547458},{"id":"ID01057","shopName":"Żabka","city":"Nakło Nad Notecią","address":"Bydgoska 38","lat":53.137936,"lon":17.603765},{"id":"ID01054","shopName":"Żabka","city":"Gdańsk","address":"Ks. Sychty 10a","lat":54.386238,"lon":18.581911},{"id":"ID01062","shopName":"Żabka","city":"Poznań","address":"Wrocławska 23","lat":52.406254,"lon":16.932964},{"id":"ID01064","shopName":"Żabka","city":"Łódź","address":"Żwirki 8","lat":51.755718,"lon":19.457748},