{
  "shopName": "Biedronka",
  "city": "Stara Iwiczna ",
  "address": "Nowa 9",
  "lat": 52.0834635,
  "lon": 21.0023263,
  "chleb": 4,
  "maslo": 4,
  "ser": 16,
  "jajka": 2,
  "szynka": 30,
  "kielbasa": 16,
  "cukier": 6,
  "mleko": 5,
  "smietana": 8,
  "mineralna": 1
},
{
  "shopName": "Biedronka",
  "city": "Piaseczno",
  "address": "Julianowska 35",
  "lat": 52.0850435,
  "lon": 21.0432831,
  "chleb": 7,
  "maslo": 5,
  "ser": 22,
  "jajka": 1,
  "szynka": 39,
  "kielbasa": 15,
  "cukier": 6,
  "mleko": 2,
  "smietana": 8,
  "mineralna": 2
},
{
  "shopName": "Biedronka",
  "city": "Warszawa",
  "address": "Krucza 50",
  "lat": 52.2315147,
  "lon": 21.0166545,
  "chleb": 6,
  "maslo": 5,
  "ser": 30,
  "jajka": 2,
  "szynka": 28,
  "kielbasa": 17,
  "cukier": 4,
  "mleko": 3,
  "smietana": 7,
  "mineralna": 1
},
{
  "shopName": "Biedronka",
  "city": "Michałów Reginów ",
  "address": "Nowodworska 12",
  "lat": 52.4192541,
  "lon": 20.9648368,
  "chleb": 5,
  "maslo": 7,
  "ser": 25,
  "jajka": 2,
  "szynka": 30,
  "kielbasa": 12,
  "cukier": 6,
  "mleko": 5,
  "smietana": 6,
  "mineralna": 2
},
{
  "shopName": "Biedronka",
  "city": "Sulejówek ",
  "address": "Zofii Nałkowskiej 2",
  "lat": 52.24102,
  "lon": 21.29913,
  "chleb": 7,
  "maslo": 4,
  "ser": 16,
  "jajka": 1,
  "szynka": 30,
  "kielbasa": 19,
  "cukier": 3,
  "mleko": 4,
  "smietana": 7,
  "mineralna": 1
},
{
  "shopName": "Biedronka",
  "city": "Warszawa",
  "address": "Augustyna Kordeckiego 56/58",
  "lat": 52.2448251,
  "lon": 21.0960624,
  "chleb": 6,
  "maslo": 4,
  "ser": 30,
  "jajka": 1,
  "szynka": 39,
  "kielbasa": 17,
  "cukier": 3,
  "mleko": 4,
  "smietana": 4,
  "mineralna": 2
},
{
  "shopName": "Biedronka",
  "city": "Piaseczno",
  "address": "Henryka Sienkiewicza 3",
  "lat": 52.0695447,
  "lon": 21.0258956,
  "chleb": 7,
  "maslo": 5,
  "ser": 21,
  "jajka": 2,
  "szynka": 26,
  "kielbasa": 13,
  "cukier": 4,
  "mleko": 3,
  "smietana": 5,
  "mineralna": 1
},
{
  "shopName": "Biedronka",
  "city": "Warszawa",
  "address": "Bartycka 183",
  "lat": 52.2117177,
  "lon": 21.0492289,
  "chleb": 6,
  "maslo": 4,
  "ser": 17,
  "jajka": 1,
  "szynka": 25,
  "kielbasa": 14,
  "cukier": 6,
  "mleko": 2,
  "smietana": 4,
  "mineralna": 2
},
{
  "shopName": "Biedronka",
  "city": "Piaseczno",
  "address": "Okulickiego 2A",
  "lat": 52.080957,
  "lon": 21.0217897,
  "chleb": 6,
  "maslo": 5,
  "ser": 17,
  "jajka": 1,
  "szynka": 39,
  "kielbasa": 18,
  "cukier": 4,
  "mleko": 2,
  "smietana": 6,
  "mineralna": 2
},
{
  "shopName": "Biedronka",
  "city": "Konstancin Jeziorna ",
  "address": "Warszawska",
  "lat": 52.0904015,
  "lon": 21.1217307,
  "chleb": 6,
  "maslo": 5,
  "ser": 20,
  "jajka": 2,
  "szynka": 40,
  "kielbasa": 13,
  "cukier": 6,
  "mleko": 5,
  "smietana": 6,
  "mineralna": 2
},
{
  "shopName": "Biedronka",
  "city": "Konstancin Jeziorna ",
  "address": "Aleja Wojska Polskiego 2",
  "lat": 52.09223,
  "lon": 21.12357,
  "chleb": 5,
  "maslo": 5,
  "ser": 28,
  "jajka": 1,
  "szynka": 33,
  "kielbasa": 19,
  "cukier": 6,
  "mleko": 5,
  "smietana": 4,
  "mineralna": 1
},
{
  "shopName": "Biedronka",
  "city": "Warszawa",
  "address": "Aleja Jerzego Waszyngtona 96",
  "lat": 52.2422275,
  "lon": 21.0733745,
  "chleb": 5,
  "maslo": 5,
  "ser": 32,
  "jajka": 1,
  "szynka": 26,
  "kielbasa": 12,
  "cukier": 3,
  "mleko": 4,
  "smietana": 6,
  "mineralna": 1
},
{
  "shopName": "Biedronka",
  "city": "Warszawa",
  "address": "Bronowska 5A",
  "lat": 52.1998494,
  "lon": 21.1200316,
  "chleb": 7,
  "maslo": 6,
  "ser": 24,
  "jajka": 1,
  "szynka": 29,
  "kielbasa": 18,
  "cukier": 4,
  "mleko": 2,
  "smietana": 5,
  "mineralna": 2
},
{
  "shopName": "Biedronka",
  "city": "Piaseczno",
  "address": "Dworcowa 21",
  "lat": 52.0704009,
  "lon": 21.0160419,
  "chleb": 5,
  "maslo": 5,
  "ser": 26,
  "jajka": 1,
  "szynka": 39,
  "kielbasa": 13,
  "cukier": 6,
  "mleko": 2,
  "smietana": 8,
  "mineralna": 1
},
{
  "shopName": "Biedronka",
  "city": "Warszawa",
  "address": "Bokserska 61",
  "lat": 52.169771,
  "lon": 20.9947606,
  "chleb": 4,
  "maslo": 6,
  "ser": 17,
  "jajka": 1,
  "szynka": 34,
  "kielbasa": 12,
  "cukier": 5,
  "mleko": 4,
  "smietana": 8,
  "mineralna": 2
},
{
  "shopName": "Biedronka",
  "city": "Warszawa",
  "address": "Obozowa 16",
  "lat": 52.2445654,
  "lon": 20.9665057,
  "chleb": 6,
  "maslo": 8,
  "ser": 22,
  "jajka": 1,
  "szynka": 30,
  "kielbasa": 14,
  "cukier": 6,
  "mleko": 4,
  "smietana": 6,
  "mineralna": 1
},
{
  "shopName": "Biedronka",
  "city": "Warszawa",
  "address": "Batuty 5",
  "lat": 52.1699637,
  "lon": 21.0250689,
  "chleb": 7,
  "maslo": 6,
  "ser": 27,
  "jajka": 1,
  "szynka": 34,
  "kielbasa": 12,
  "cukier": 4,
  "mleko": 2,
  "smietana": 4,
  "mineralna": 1
},
{
  "shopName": "Biedronka",
  "city": "Warszawa",
  "address": "Elsnera 9",
  "lat": 52.1715523,
  "lon": 21.0374538,
  "chleb": 6,
  "maslo": 4,
  "ser": 27,
  "jajka": 2,
  "szynka": 36,
  "kielbasa": 14,
  "cukier": 4,
  "mleko": 4,
  "smietana": 6,
  "mineralna": 2
},
{
  "shopName": "Biedronka",
  "city": "Warszawa",
  "address": "Deotymy 56",
  "lat": 52.245396,
  "lon": 20.9482908,
  "chleb": 6,
  "maslo": 4,
  "ser": 29,
  "jajka": 2,
  "szynka": 25,
  "kielbasa": 16,
  "cukier": 6,
  "mleko": 2,
  "smietana": 8,
  "mineralna": 1
},
{
  "shopName": "Biedronka",
  "city": "Warszawa",
  "address": "Aleja Krakowska 246",
  "lat": 52.189422,
  "lon": 20.9585422,
  "chleb": 7,
  "maslo": 7,
  "ser": 32,
  "jajka": 1,
  "szynka": 31,
  "kielbasa": 17,
  "cukier": 6,
  "mleko": 5,
  "smietana": 4,
  "mineralna": 2
},
{
  "shopName": "Biedronka",
  "city": "Warszawa",
  "address": "Eugeniusza Romera 10",
  "lat": 52.1562794,
  "lon": 21.020887,
  "chleb": 4,
  "maslo": 5,
  "ser": 17,
  "jajka": 2,
  "szynka": 34,
  "kielbasa": 20,
  "cukier": 3,
  "mleko": 2,
  "smietana": 4,
  "mineralna": 1
},
{
  "shopName": "Biedronka",
  "city": "Warszawa",
  "address": "Dolna 3",
  "lat": 52.2014035,
  "lon": 21.0339463,
  "chleb": 7,
  "maslo": 7,
  "ser": 17,
  "jajka": 2,
  "szynka": 26,
  "kielbasa": 14,
  "cukier": 3,
  "mleko": 5,
  "smietana": 5,
  "mineralna": 2
},
{
  "shopName": "Biedronka",
  "city": "Warszawa",
  "address": "Gąbińska 22",
  "lat": 52.2720037,
  "lon": 20.9600882,
  "chleb": 5,
  "maslo": 5,
  "ser": 27,
  "jajka": 1,
  "szynka": 27,
  "kielbasa": 16,
  "cukier": 5,
  "mleko": 5,
  "smietana": 5,
  "mineralna": 2
},
{
  "shopName": "Biedronka",
  "city": "Warszawa",
  "address": "Chmielna 36",
  "lat": 52.2323617,
  "lon": 21.0117618,
  "chleb": 6,
  "maslo": 4,
  "ser": 32,
  "jajka": 1,
  "szynka": 32,
  "kielbasa": 12,
  "cukier": 3,
  "mleko": 2,
  "smietana": 6,
  "mineralna": 2
},
{
  "shopName": "Biedronka",
  "city": "Warszawa",
  "address": "Brygady Pościgowej 2A",
  "lat": 52.2217662,
  "lon": 21.0943923,
  "chleb": 4,
  "maslo": 7,
  "ser": 29,
  "jajka": 1,
  "szynka": 30,
  "kielbasa": 13,
  "cukier": 4,
  "mleko": 4,
  "smietana": 8,
  "mineralna": 1
},
{
  "shopName": "Biedronka",
  "city": "Warszawa",
  "address": "Czarodzieja 28",
  "lat": 52.3359296,
  "lon": 20.9634665,
  "chleb": 4,
  "maslo": 8,
  "ser": 16,
  "jajka": 2,
  "szynka": 32,
  "kielbasa": 20,
  "cukier": 6,
  "mleko": 4,
  "smietana": 6,
  "mineralna": 2
},
{
  "shopName": "Biedronka",
  "city": "Warszawa",
  "address": "Czumy 3B",
  "lat": 52.236866,
  "lon": 20.9115477,
  "chleb": 7,
  "maslo": 4,
  "ser": 19,
  "jajka": 2,
  "szynka": 30,
  "kielbasa": 17,
  "cukier": 3,
  "mleko": 3,
  "smietana": 6,
  "mineralna": 1
},
{
  "shopName": "Biedronka",
  "city": "Warszawa",
  "address": "Aleja Komisji Edukacji Narodowej",
  "lat": 52.1570555,
  "lon": 21.0331492,
  "chleb": 4,
  "maslo": 5,
  "ser": 16,
  "jajka": 1,
  "szynka": 35,
  "kielbasa": 12,
  "cukier": 6,
  "mleko": 2,
  "smietana": 6,
  "mineralna": 1
},
{
  "shopName": "Biedronka",
  "city": "Warszawa",
  "address": "Skoroszewska",
  "lat": 52.1856965,
  "lon": 20.8958886,
  "chleb": 6,
  "maslo": 5,
  "ser": 32,
  "jajka": 1,
  "szynka": 31,
  "kielbasa": 19,
  "cukier": 4,
  "mleko": 2,
  "smietana": 4,
  "mineralna": 1
},
{
  "shopName": "Biedronka",
  "city": "Warszawa",
  "address": "Podskarbińska 4",
  "lat": 52.2474349,
  "lon": 21.0755579,
  "chleb": 4,
  "maslo": 8,
  "ser": 24,
  "jajka": 1,
  "szynka": 33,
  "kielbasa": 12,
  "cukier": 4,
  "mleko": 4,
  "smietana": 5,
  "mineralna": 1
},
{
  "shopName": "Biedronka",
  "city": "Warszawa",
  "address": "Dęblińska 2",
  "lat": 52.2373206,
  "lon": 21.1139484,
  "chleb": 4,
  "maslo": 7,
  "ser": 32,
  "jajka": 2,
  "szynka": 33,
  "kielbasa": 18,
  "cukier": 6,
  "mleko": 4,
  "smietana": 4,
  "mineralna": 1
},
{
  "shopName": "Biedronka",
  "city": "Warszawa",
  "address": "Puławska 111",
  "lat": 52.1918343,
  "lon": 21.0250194,
  "chleb": 5,
  "maslo": 7,
  "ser": 19,
  "jajka": 1,
  "szynka": 25,
  "kielbasa": 14,
  "cukier": 3,
  "mleko": 4,
  "smietana": 4,
  "mineralna": 1
},
{
  "shopName": "Biedronka",
  "city": "Warszawa",
  "address": "Rydgiera 7",
  "lat": 52.22977,
  "lon": 21.01178,
  "chleb": 4,
  "maslo": 4,
  "ser": 17,
  "jajka": 1,
  "szynka": 34,
  "kielbasa": 14,
  "cukier": 4,
  "mleko": 3,
  "smietana": 8,
  "mineralna": 1
},
{
  "shopName": "Biedronka",
  "city": "Warszawa",
  "address": "Sejmu Czteroletniego 2",
  "lat": 52.1572584,
  "lon": 21.0724503,
  "chleb": 7,
  "maslo": 4,
  "ser": 32,
  "jajka": 1,
  "szynka": 27,
  "kielbasa": 15,
  "cukier": 3,
  "mleko": 3,
  "smietana": 7,
  "mineralna": 1
},
{
  "shopName": "Biedronka",
  "city": "Warszawa",
  "address": "Wał Miedzeszyński 106",
  "lat": 52.1605611,
  "lon": 21.1716451,
  "chleb": 4,
  "maslo": 6,
  "ser": 19,
  "jajka": 2,
  "szynka": 33,
  "kielbasa": 12,
  "cukier": 6,
  "mleko": 2,
  "smietana": 6,
  "mineralna": 1
},
{
  "shopName": "Biedronka",
  "city": "Warszawa",
  "address": "Powstańców Śląskich 9",
  "lat": 52.2247724,
  "lon": 20.9157514,
  "chleb": 6,
  "maslo": 5,
  "ser": 24,
  "jajka": 1,
  "szynka": 25,
  "kielbasa": 12,
  "cukier": 5,
  "mleko": 5,
  "smietana": 8,
  "mineralna": 1
},
{
  "shopName": "Biedronka",
  "city": "Warszawa",
  "address": "Sarmacka 4",
  "lat": 52.1671223,
  "lon": 21.0740405,
  "chleb": 6,
  "maslo": 8,
  "ser": 18,
  "jajka": 1,
  "szynka": 33,
  "kielbasa": 14,
  "cukier": 4,
  "mleko": 4,
  "smietana": 5,
  "mineralna": 1
},
{
  "shopName": "Biedronka",
  "city": "Warszawa",
  "address": "Rzeczypospolitej 23a",
  "lat": 52.1641743,
  "lon": 21.0683367,
  "chleb": 6,
  "maslo": 5,
  "ser": 31,
  "jajka": 1,
  "szynka": 39,
  "kielbasa": 15,
  "cukier": 5,
  "mleko": 5,
  "smietana": 4,
  "mineralna": 1
},
{
  "shopName": "Biedronka",
  "city": "Warszawa",
  "address": "Syta 100",
  "lat": 52.1661546,
  "lon": 21.1090377,
  "chleb": 7,
  "maslo": 6,
  "ser": 24,
  "jajka": 2,
  "szynka": 27,
  "kielbasa": 14,
  "cukier": 3,
  "mleko": 5,
  "smietana": 5,
  "mineralna": 2
},
{
  "shopName": "Biedronka",
  "city": "Warszawa",
  "address": "Przekorna 37 B",
  "lat": 52.1236985,
  "lon": 21.0997419,
  "chleb": 6,
  "maslo": 5,
  "ser": 18,
  "jajka": 1,
  "szynka": 37,
  "kielbasa": 12,
  "cukier": 3,
  "mleko": 5,
  "smietana": 4,
  "mineralna": 1
},
{
  "shopName": "Biedronka",
  "city": "Warszawa",
  "address": "Światowida 53E",
  "lat": 52.3252889,
  "lon": 20.9390262,
  "chleb": 5,
  "maslo": 6,
  "ser": 29,
  "jajka": 2,
  "szynka": 27,
  "kielbasa": 16,
  "cukier": 3,
  "mleko": 5,
  "smietana": 8,
  "mineralna": 1
},
{
  "shopName": "Biedronka",
  "city": "Warszawa",
  "address": "Świetlików 9",
  "lat": 52.2282841,
  "lon": 20.910559,
  "chleb": 4,
  "maslo": 4,
  "ser": 26,
  "jajka": 2,
  "szynka": 30,
  "kielbasa": 16,
  "cukier": 6,
  "mleko": 3,
  "smietana": 8,
  "mineralna": 2
},
{
  "shopName": "Lidl",
  "city": "Warszawa",
  "address": "Bolesławicka 2",
  "lat": 52.2831828,
  "lon": 21.0324359,
  "chleb": 7,
  "maslo": 4,
  "ser": 19,
  "jajka": 1,
  "szynka": 31,
  "kielbasa": 12,
  "cukier": 3,
  "mleko": 4,
  "smietana": 7,
  "mineralna": 1
},
{
  "shopName": "Biedronka",
  "city": "Warszawa",
  "address": "Uniejowska 4",
  "lat": 52.2507837,
  "lon": 20.9145683,
  "chleb": 4,
  "maslo": 4,
  "ser": 17,
  "jajka": 1,
  "szynka": 32,
  "kielbasa": 17,
  "cukier": 5,
  "mleko": 4,
  "smietana": 7,
  "mineralna": 2
},
{
  "shopName": "Biedronka",
  "city": "Warszawa",
  "address": "Skrajna 14",
  "lat": 52.2944313,
  "lon": 21.0221398,
  "chleb": 6,
  "maslo": 8,
  "ser": 16,
  "jajka": 2,
  "szynka": 33,
  "kielbasa": 13,
  "cukier": 6,
  "mleko": 3,
  "smietana": 6,
  "mineralna": 1
},
{
  "shopName": "Biedronka",
  "city": "Warszawa",
  "address": "Szwedzka 43",
  "lat": 52.2659554,
  "lon": 21.0404366,
  "chleb": 6,
  "maslo": 5,
  "ser": 28,
  "jajka": 2,
  "szynka": 29,
  "kielbasa": 17,
  "cukier": 3,
  "mleko": 4,
  "smietana": 6,
  "mineralna": 2
},
{
  "shopName": "Biedronka",
  "city": "Warszawa",
  "address": "Stanisława Żółkiewskiego 36",
  "lat": 52.2454002,
  "lon": 21.1095892,
  "chleb": 5,
  "maslo": 5,
  "ser": 31,
  "jajka": 1,
  "szynka": 26,
  "kielbasa": 17,
  "cukier": 5,
  "mleko": 5,
  "smietana": 6,
  "mineralna": 1
},
{
  "shopName": "Biedronka",
  "city": "Warszawa",
  "address": "Targowa 24",
  "lat": 52.249977,
  "lon": 21.0423173,
  "chleb": 7,
  "maslo": 5,
  "ser": 32,
  "jajka": 2,
  "szynka": 30,
  "kielbasa": 12,
  "cukier": 4,
  "mleko": 4,
  "smietana": 6,
  "mineralna": 2
},
{
  "shopName": "Lidl",
  "city": "Warszawa",
  "address": "BORA KOMOROWSKIEGO 14A",
  "lat": 52.225015,
  "lon": 21.095734,
  "chleb": 4,
  "maslo": 7,
  "ser": 29,
  "jajka": 1,
  "szynka": 37,
  "kielbasa": 20,
  "cukier": 3,
  "mleko": 4,
  "smietana": 7,
  "mineralna": 1
},
{
  "shopName": "Biedronka",
  "city": "Warszawa",
  "address": "Bukowińska 22",
  "lat": 52.1811097,
  "lon": 21.0273051,
  "chleb": 4,
  "maslo": 4,
  "ser": 22,
  "jajka": 2,
  "szynka": 39,
  "kielbasa": 19,
  "cukier": 5,
  "mleko": 3,
  "smietana": 4,
  "mineralna": 2
},
{
  "shopName": "Lidl",
  "city": "Warszawa",
  "address": "Borzymowska 26",
  "lat": 52.2769805,
  "lon": 21.0474198,
  "chleb": 4,
  "maslo": 4,
  "ser": 22,
  "jajka": 2,
  "szynka": 37,
  "kielbasa": 19,
  "cukier": 4,
  "mleko": 4,
  "smietana": 7,
  "mineralna": 1
},
{
  "shopName": "Lidl",
  "city": "Warszawa",
  "address": "Księcia Bolesława 1a",
  "lat": 52.2512083,
  "lon": 20.9387272,
  "chleb": 6,
  "maslo": 6,
  "ser": 16,
  "jajka": 2,
  "szynka": 27,
  "kielbasa": 15,
  "cukier": 3,
  "mleko": 3,
  "smietana": 7,
  "mineralna": 2
},
{
  "shopName": "Lidl",
  "city": "Warszawa",
  "address": "Plastyczna 12",
  "lat": 52.2088155,
  "lon": 20.9209512,
  "chleb": 4,
  "maslo": 5,
  "ser": 31,
  "jajka": 2,
  "szynka": 37,
  "kielbasa": 18,
  "cukier": 4,
  "mleko": 2,
  "smietana": 5,
  "mineralna": 1
},
{
  "shopName": "Lidl",
  "city": "Warszawa",
  "address": "Kasprowicza 117",
  "lat": 52.2885505,
  "lon": 20.9320771,
  "chleb": 7,
  "maslo": 8,
  "ser": 20,
  "jajka": 2,
  "szynka": 25,
  "kielbasa": 17,
  "cukier": 4,
  "mleko": 5,
  "smietana": 6,
  "mineralna": 2
},
{
  "shopName": "Biedronka",
  "city": "Warszawa",
  "address": "Zwycięzców 40",
  "lat": 52.2325974,
  "lon": 21.0633777,
  "chleb": 4,
  "maslo": 4,
  "ser": 25,
  "jajka": 2,
  "szynka": 31,
  "kielbasa": 12,
  "cukier": 4,
  "mleko": 2,
  "smietana": 6,
  "mineralna": 1
},
{
  "shopName": "Biedronka",
  "city": "Warszawa",
  "address": "Władysława Broniewskiego 58A",
  "lat": 52.2709794,
  "lon": 20.9493217,
  "chleb": 4,
  "maslo": 7,
  "ser": 22,
  "jajka": 2,
  "szynka": 30,
  "kielbasa": 18,
  "cukier": 5,
  "mleko": 2,
  "smietana": 4,
  "mineralna": 1
},
{
  "shopName": "Biedronka",
  "city": "Warszawa",
  "address": "Romana Abrahama 1",
  "lat": 52.22977,
  "lon": 21.01178,
  "chleb": 4,
  "maslo": 5,
  "ser": 18,
  "jajka": 1,
  "szynka": 26,
  "kielbasa": 17,
  "cukier": 4,
  "mleko": 5,
  "smietana": 6,
  "mineralna": 1
},
{
  "shopName": "Tesco",
  "city": "Warszawa",
  "address": "Sosnkowskiego 1C",
  "lat": 52.1840228,
  "lon": 20.8915259,
  "chleb": 5,
  "maslo": 8,
  "ser": 22,
  "jajka": 2,
  "szynka": 31,
  "kielbasa": 12,
  "cukier": 5,
  "mleko": 3,
  "smietana": 7,
  "mineralna": 2
},
{
  "shopName": "Biedronka",
  "city": "Warszawa",
  "address": "Wacława Szadkowskiego 1",
  "lat": 52.2513078,
  "lon": 20.9186973,
  "chleb": 7,
  "maslo": 4,
  "ser": 32,
  "jajka": 1,
  "szynka": 27,
  "kielbasa": 15,
  "cukier": 5,
  "mleko": 2,
  "smietana": 7,
  "mineralna": 1
},
{
  "shopName": "Biedronka",
  "city": "Warszawa",
  "address": "Witolińska 7",
  "lat": 52.2389406,
  "lon": 21.1094593,
  "chleb": 5,
  "maslo": 7,
  "ser": 25,
  "jajka": 1,
  "szynka": 37,
  "kielbasa": 12,
  "cukier": 3,
  "mleko": 2,
  "smietana": 4,
  "mineralna": 1
},
{
  "shopName": "Tesco",
  "city": "Warszawa",
  "address": "Czerska 4/6",
  "lat": 52.2030241,
  "lon": 21.0466663,
  "chleb": 7,
  "maslo": 4,
  "ser": 27,
  "jajka": 2,
  "szynka": 25,
  "kielbasa": 16,
  "cukier": 5,
  "mleko": 4,
  "smietana": 6,
  "mineralna": 2
},
{
  "shopName": "Biedronka",
  "city": "Warszawa",
  "address": "Wiatraczna 15",
  "lat": 52.2446566,
  "lon": 21.08712,
  "chleb": 4,
  "maslo": 7,
  "ser": 30,
  "jajka": 1,
  "szynka": 25,
  "kielbasa": 15,
  "cukier": 5,
  "mleko": 5,
  "smietana": 6,
  "mineralna": 2
},
{
  "shopName": "Biedronka",
  "city": "Warszawa",
  "address": "Wspólna Droga 27",
  "lat": 52.2494319,
  "lon": 21.0979364,
  "chleb": 5,
  "maslo": 4,
  "ser": 32,
  "jajka": 1,
  "szynka": 31,
  "kielbasa": 19,
  "cukier": 6,
  "mleko": 3,
  "smietana": 5,
  "mineralna": 1
},
{
  "shopName": "Lidl",
  "city": "Warszawa",
  "address": "Latchorzew",
  "lat": 52.2456507,
  "lon": 20.8581513,
  "chleb": 7,
  "maslo": 8,
  "ser": 30,
  "jajka": 1,
  "szynka": 28,
  "kielbasa": 14,
  "cukier": 4,
  "mleko": 4,
  "smietana": 6,
  "mineralna": 1
},
{
  "shopName": "Carrefour",
  "city": "Warszawa",
  "address": "Abrahama 14",
  "lat": 52.2278889,
  "lon": 21.090334,
  "chleb": 7,
  "maslo": 6,
  "ser": 17,
  "jajka": 1,
  "szynka": 27,
  "kielbasa": 18,
  "cukier": 6,
  "mleko": 2,
  "smietana": 4,
  "mineralna": 1
},
{
  "shopName": "Biedronka",
  "city": "Warszawa",
  "address": "Związku Walki Młodych 11",
  "lat": 52.1583985,
  "lon": 21.0378403,
  "chleb": 5,
  "maslo": 4,
  "ser": 21,
  "jajka": 1,
  "szynka": 36,
  "kielbasa": 13,
  "cukier": 4,
  "mleko": 2,
  "smietana": 5,
  "mineralna": 1
},
{
  "shopName": "Carrefour",
  "city": "Warszawa",
  "address": "Bełdan 2",
  "lat": 52.1713367,
  "lon": 21.0105807,
  "chleb": 6,
  "maslo": 5,
  "ser": 30,
  "jajka": 2,
  "szynka": 30,
  "kielbasa": 16,
  "cukier": 4,
  "mleko": 5,
  "smietana": 6,
  "mineralna": 2
},
{
  "shopName": "Tesco",
  "city": "Warszawa",
  "address": "Okuniewska 1A",
  "lat": 52.2544693,
  "lon": 21.2249819,
  "chleb": 4,
  "maslo": 5,
  "ser": 25,
  "jajka": 2,
  "szynka": 28,
  "kielbasa": 14,
  "cukier": 4,
  "mleko": 2,
  "smietana": 7,
  "mineralna": 2
},
{
  "shopName": "Lidl",
  "city": "Warszawa",
  "address": "Kopalniana 24",
  "lat": 52.2199509,
  "lon": 20.8952973,
  "chleb": 5,
  "maslo": 8,
  "ser": 29,
  "jajka": 1,
  "szynka": 30,
  "kielbasa": 13,
  "cukier": 4,
  "mleko": 3,
  "smietana": 7,
  "mineralna": 1
},
{
  "shopName": "Carrefour",
  "city": "Warszawa",
  "address": "Awionetki RWD 1",
  "lat": 52.226261,
  "lon": 21.0889401,
  "chleb": 4,
  "maslo": 7,
  "ser": 28,
  "jajka": 2,
  "szynka": 40,
  "kielbasa": 13,
  "cukier": 6,
  "mleko": 3,
  "smietana": 5,
  "mineralna": 2
},
{
  "shopName": "Lidl",
  "city": "Warszawa",
  "address": "Aleja Krakowska 253",
  "lat": 52.1914003,
  "lon": 20.9577706,
  "chleb": 4,
  "maslo": 8,
  "ser": 24,
  "jajka": 1,
  "szynka": 35,
  "kielbasa": 14,
  "cukier": 3,
  "mleko": 2,
  "smietana": 6,
  "mineralna": 1
},
{
  "shopName": "Tesco",
  "city": "Warszawa",
  "address": "Stalowa 60/64",
  "lat": 52.2633171,
  "lon": 21.0505656,
  "chleb": 6,
  "maslo": 7,
  "ser": 27,
  "jajka": 1,
  "szynka": 31,
  "kielbasa": 15,
  "cukier": 4,
  "mleko": 2,
  "smietana": 7,
  "mineralna": 1
},
{
  "shopName": "Tesco",
  "city": "Warszawa",
  "address": "Patriotów 154",
  "lat": 52.1825926,
  "lon": 21.1917743,
  "chleb": 5,
  "maslo": 4,
  "ser": 28,
  "jajka": 1,
  "szynka": 30,
  "kielbasa": 19,
  "cukier": 5,
  "mleko": 3,
  "smietana": 4,
  "mineralna": 2
},
{
  "shopName": "Carrefour",
  "city": "Warszawa",
  "address": "Chrościckiego 16/18",
  "lat": 52.2074646,
  "lon": 20.906656,
  "chleb": 7,
  "maslo": 6,
  "ser": 26,
  "jajka": 2,
  "szynka": 30,
  "kielbasa": 15,
  "cukier": 4,
  "mleko": 2,
  "smietana": 5,
  "mineralna": 2
},
{
  "shopName": "Biedronka",
  "city": "Warszawa",
  "address": "Bonifraterska 6",
  "lat": 52.2512121,
  "lon": 21.0032723,
  "chleb": 5,
  "maslo": 6,
  "ser": 30,
  "jajka": 1,
  "szynka": 27,
  "kielbasa": 14,
  "cukier": 3,
  "mleko": 5,
  "smietana": 7,
  "mineralna": 1
},
{
  "shopName": "Biedronka",
  "city": "Warszawa",
  "address": "Barkocińska 6",
  "lat": 52.2686271,
  "lon": 21.0571977,
  "chleb": 5,
  "maslo": 4,
  "ser": 27,
  "jajka": 2,
  "szynka": 38,
  "kielbasa": 14,
  "cukier": 6,
  "mleko": 3,
  "smietana": 7,
  "mineralna": 2
},
{
  "shopName": "Carrefour",
  "city": "Warszawa",
  "address": "Pełczyńskiego",
  "lat": 52.2420065,
  "lon": 20.9036862,
  "chleb": 5,
  "maslo": 6,
  "ser": 29,
  "jajka": 2,
  "szynka": 30,
  "kielbasa": 17,
  "cukier": 6,
  "mleko": 5,
  "smietana": 8,
  "mineralna": 1
},
{
  "shopName": "Carrefour",
  "city": "Warszawa",
  "address": "1 Sierpnia 29",
  "lat": 52.1931455,
  "lon": 20.972894,
  "chleb": 5,
  "maslo": 4,
  "ser": 28,
  "jajka": 1,
  "szynka": 39,
  "kielbasa": 20,
  "cukier": 4,
  "mleko": 2,
  "smietana": 7,
  "mineralna": 1
},
{
  "shopName": "Carrefour",
  "city": "Warszawa",
  "address": "Krasińskiego 8",
  "lat": 52.2701591,
  "lon": 20.9898344,
  "chleb": 6,
  "maslo": 6,
  "ser": 22,
  "jajka": 2,
  "szynka": 25,
  "kielbasa": 13,
  "cukier": 3,
  "mleko": 5,
  "smietana": 4,
  "mineralna": 1
},
{
  "shopName": "Biedronka",
  "city": "Warszawa",
  "address": "Trenów 51",
  "lat": 52.3141839,
  "lon": 20.8810369,
  "chleb": 5,
  "maslo": 7,
  "ser": 27,
  "jajka": 2,
  "szynka": 36,
  "kielbasa": 16,
  "cukier": 3,
  "mleko": 3,
  "smietana": 8,
  "mineralna": 2
},
{
  "shopName": "Biedronka",
  "city": "Warszawa",
  "address": "Warszawska 42",
  "lat": 52.1988766,
  "lon": 20.8689418,
  "chleb": 7,
  "maslo": 8,
  "ser": 24,
  "jajka": 1,
  "szynka": 36,
  "kielbasa": 14,
  "cukier": 4,
  "mleko": 2,
  "smietana": 8,
  "mineralna": 2
},
{
  "shopName": "Biedronka",
  "city": "Warszawa",
  "address": "Zygmunta Modzelewskiego 27",
  "lat": 52.1784849,
  "lon": 21.0134968,
  "chleb": 4,
  "maslo": 8,
  "ser": 30,
  "jajka": 2,
  "szynka": 36,
  "kielbasa": 12,
  "cukier": 3,
  "mleko": 4,
  "smietana": 6,
  "mineralna": 1
},
{
  "shopName": "Biedronka",
  "city": "Warszawa",
  "address": "Krochmalna 2",
  "lat": 52.2376772,
  "lon": 20.9947381,
  "chleb": 6,
  "maslo": 8,
  "ser": 30,
  "jajka": 2,
  "szynka": 39,
  "kielbasa": 18,
  "cukier": 3,
  "mleko": 4,
  "smietana": 8,
  "mineralna": 2
},
{
  "shopName": "Biedronka",
  "city": "Warszawa",
  "address": "Władysława Korotyńskiego 23",
  "lat": 52.2037281,
  "lon": 20.9646545,
  "chleb": 6,
  "maslo": 8,
  "ser": 32,
  "jajka": 1,
  "szynka": 39,
  "kielbasa": 14,
  "cukier": 6,
  "mleko": 4,
  "smietana": 6,
  "mineralna": 2
},
{
  "shopName": "Biedronka",
  "city": "Warszawa",
  "address": "Żelazna 32",
  "lat": 51.878588,
  "lon": 21.1575666,
  "chleb": 6,
  "maslo": 5,
  "ser": 22,
  "jajka": 1,
  "szynka": 25,
  "kielbasa": 12,
  "cukier": 6,
  "mleko": 5,
  "smietana": 4,
  "mineralna": 2
},
{
  "shopName": "Tesco",
  "city": "Warszawa",
  "address": "Fieldorfa 41",
  "lat": 52.2326227,
  "lon": 21.0943734,
  "chleb": 4,
  "maslo": 7,
  "ser": 24,
  "jajka": 2,
  "szynka": 36,
  "kielbasa": 15,
  "cukier": 5,
  "mleko": 5,
  "smietana": 5,
  "mineralna": 2
},
{
  "shopName": "Tesco",
  "city": "Warszawa",
  "address": "Kleszczowa 18",
  "lat": 52.198189,
  "lon": 20.9174378,
  "chleb": 6,
  "maslo": 7,
  "ser": 24,
  "jajka": 1,
  "szynka": 34,
  "kielbasa": 13,
  "cukier": 6,
  "mleko": 3,
  "smietana": 4,
  "mineralna": 1
},
{
  "shopName": "Biedronka",
  "city": "Warszawa",
  "address": "Wita Stwosza 48",
  "lat": 52.17896,
  "lon": 21.0205452,
  "chleb": 6,
  "maslo": 4,
  "ser": 31,
  "jajka": 1,
  "szynka": 31,
  "kielbasa": 18,
  "cukier": 6,
  "mleko": 2,
  "smietana": 7,
  "mineralna": 2
},
{
  "shopName": "Tesco",
  "city": "Warszawa",
  "address": "Cyrulików 95/97",
  "lat": 52.2574598,
  "lon": 21.1570771,
  "chleb": 6,
  "maslo": 7,
  "ser": 17,
  "jajka": 1,
  "szynka": 39,
  "kielbasa": 18,
  "cukier": 6,
  "mleko": 5,
  "smietana": 4,
  "mineralna": 2
},
{
  "shopName": "Biedronka",
  "city": "Warszawa",
  "address": "Plac Konesera 9",
  "lat": 52.2563474,
  "lon": 21.0447701,
  "chleb": 5,
  "maslo": 5,
  "ser": 19,
  "jajka": 2,
  "szynka": 25,
  "kielbasa": 17,
  "cukier": 4,
  "mleko": 4,
  "smietana": 5,
  "mineralna": 2
},
{
  "shopName": "Carrefour",
  "city": "Warszawa",
  "address": "Anielewicza 2",
  "lat": 52.249495,
  "lon": 20.9977953,
  "chleb": 6,
  "maslo": 5,
  "ser": 30,
  "jajka": 1,
  "szynka": 39,
  "kielbasa": 18,
  "cukier": 5,
  "mleko": 4,
  "smietana": 5,
  "mineralna": 1
},
{
  "shopName": "Biedronka",
  "city": "Warszawa",
  "address": "Grzybowa 3",
  "lat": 52.2519958,
  "lon": 21.170717,
  "chleb": 5,
  "maslo": 7,
  "ser": 29,
  "jajka": 1,
  "szynka": 32,
  "kielbasa": 17,
  "cukier": 4,
  "mleko": 2,
  "smietana": 4,
  "mineralna": 1
},
{
  "shopName": "Biedronka",
  "city": "Warszawa",
  "address": "Sokołowska 11",
  "lat": 52.2365078,
  "lon": 20.9589116,
  "chleb": 6,
  "maslo": 8,
  "ser": 26,
  "jajka": 2,
  "szynka": 37,
  "kielbasa": 18,
  "cukier": 6,
  "mleko": 4,
  "smietana": 6,
  "mineralna": 1
},
{
  "shopName": "Tesco",
  "city": "Warszawa",
  "address": "Tysiąclecia 7",
  "lat": 52.2588741,
  "lon": 21.050958,
  "chleb": 6,
  "maslo": 6,
  "ser": 28,
  "jajka": 1,
  "szynka": 31,
  "kielbasa": 19,
  "cukier": 5,
  "mleko": 4,
  "smietana": 5,
  "mineralna": 1
},
{
  "shopName": "Biedronka",
  "city": "Warszawa",
  "address": "Prząśniczek 8",
  "lat": 52.3439357,
  "lon": 20.9532108,
  "chleb": 4,
  "maslo": 8,
  "ser": 19,
  "jajka": 1,
  "szynka": 37,
  "kielbasa": 17,
  "cukier": 5,
  "mleko": 4,
  "smietana": 7,
  "mineralna": 2
},
{
  "shopName": "Biedronka",
  "city": "Warszawa",
  "address": "Dzika 2",
  "lat": 52.252341,
  "lon": 20.988403,
  "chleb": 5,
  "maslo": 5,
  "ser": 32,
  "jajka": 2,
  "szynka": 25,
  "kielbasa": 16,
  "cukier": 5,
  "mleko": 4,
  "smietana": 5,
  "mineralna": 1
},
{
  "shopName": "Biedronka",
  "city": "Warszawa",
  "address": "Połczyńska 106",
  "lat": 52.2167322,
  "lon": 20.8928482,
  "chleb": 4,
  "maslo": 8,
  "ser": 19,
  "jajka": 1,
  "szynka": 40,
  "kielbasa": 17,
  "cukier": 4,
  "mleko": 3,
  "smietana": 8,
  "mineralna": 2
},
{
  "shopName": "Biedronka",
  "city": "Warszawa",
  "address": "Heroldów 6",
  "lat": 52.3054616,
  "lon": 20.9314137,
  "chleb": 7,
  "maslo": 8,
  "ser": 30,
  "jajka": 2,
  "szynka": 37,
  "kielbasa": 18,
  "cukier": 6,
  "mleko": 3,
  "smietana": 6,
  "mineralna": 1
},
{
  "shopName": "Biedronka",
  "city": "Warszawa",
  "address": "Wysockiego 3A",
  "lat": 52.2877396,
  "lon": 21.0210355,
  "chleb": 7,
  "maslo": 7,
  "ser": 30,
  "jajka": 1,
  "szynka": 26,
  "kielbasa": 13,
  "cukier": 6,
  "mleko": 4,
  "smietana": 5,
  "mineralna": 2
},
{
  "shopName": "Biedronka",
  "city": "Warszawa",
  "address": "Niemcewicza 8",
  "lat": 52.2474915,
  "lon": 21.1973372,
  "chleb": 5,
  "maslo": 6,
  "ser": 32,
  "jajka": 1,
  "szynka": 29,
  "kielbasa": 14,
  "cukier": 4,
  "mleko": 2,
  "smietana": 6,
  "mineralna": 1
},
{
  "shopName": "Biedronka",
  "city": "Warszawa",
  "address": "Pruszkowska 4D",
  "lat": 52.201978,
  "lon": 20.9811931,
  "chleb": 6,
  "maslo": 5,
  "ser": 26,
  "jajka": 1,
  "szynka": 30,
  "kielbasa": 14,
  "cukier": 3,
  "mleko": 2,
  "smietana": 4,
  "mineralna": 1
},
{
  "shopName": "Carrefour",
  "city": "Warszawa",
  "address": "Żytnia 50",
  "lat": 52.2389717,
  "lon": 20.9694439,
  "chleb": 7,
  "maslo": 5,
  "ser": 25,
  "jajka": 1,
  "szynka": 25,
  "kielbasa": 18,
  "cukier": 5,
  "mleko": 3,
  "smietana": 8,
  "mineralna": 2
},
{
  "shopName": "Biedronka",
  "city": "Warszawa",
  "address": "Przy Agorze 22",
  "lat": 52.2912362,
  "lon": 20.9363057,
  "chleb": 7,
  "maslo": 6,
  "ser": 20,
  "jajka": 2,
  "szynka": 39,
  "kielbasa": 13,
  "cukier": 4,
  "mleko": 3,
  "smietana": 8,
  "mineralna": 1
},
{
  "shopName": "Biedronka",
  "city": "Warszawa",
  "address": "Głębocka 110",
  "lat": 52.3197128,
  "lon": 21.0678328,
  "chleb": 5,
  "maslo": 4,
  "ser": 32,
  "jajka": 2,
  "szynka": 26,
  "kielbasa": 18,
  "cukier": 3,
  "mleko": 5,
  "smietana": 4,
  "mineralna": 2
},
{
  "shopName": "Biedronka",
  "city": "Warszawa",
  "address": "Sportowa 1",
  "lat": 52.248268,
  "lon": 21.1882518,
  "chleb": 7,
  "maslo": 4,
  "ser": 26,
  "jajka": 2,
  "szynka": 33,
  "kielbasa": 12,
  "cukier": 3,
  "mleko": 4,
  "smietana": 6,
  "mineralna": 1
},
{
  "shopName": "Biedronka",
  "city": "Warszawa",
  "address": "Hirszfelda 2A",
  "lat": 52.1420261,
  "lon": 21.0428279,
  "chleb": 6,
  "maslo": 8,
  "ser": 17,
  "jajka": 1,
  "szynka": 28,
  "kielbasa": 15,
  "cukier": 4,
  "mleko": 3,
  "smietana": 4,
  "mineralna": 2
},
{
  "shopName": "Biedronka",
  "city": "Warszawa",
  "address": "Aleja Solidarności 115",
  "lat": 52.2419712,
  "lon": 20.9945399,
  "chleb": 4,
  "maslo": 7,
  "ser": 17,
  "jajka": 1,
  "szynka": 28,
  "kielbasa": 16,
  "cukier": 5,
  "mleko": 4,
  "smietana": 6,
  "mineralna": 2
},
{
  "shopName": "Biedronka",
  "city": "Warszawa",
  "address": "Mieczysława Fersta 2",
  "lat": 52.2814519,
  "lon": 21.0790468,
  "chleb": 6,
  "maslo": 7,
  "ser": 19,
  "jajka": 1,
  "szynka": 32,
  "kielbasa": 18,
  "cukier": 5,
  "mleko": 3,
  "smietana": 7,
  "mineralna": 1
},
{
  "shopName": "Biedronka",
  "city": "Warszawa",
  "address": "Plastyczna 10",
  "lat": 52.2084069,
  "lon": 20.9201835,
  "chleb": 6,
  "maslo": 7,
  "ser": 25,
  "jajka": 2,
  "szynka": 31,
  "kielbasa": 14,
  "cukier": 4,
  "mleko": 2,
  "smietana": 8,
  "mineralna": 1
},
{
  "shopName": "Biedronka",
  "city": "Warszawa",
  "address": "Marii Dąbrowskiej 15",
  "lat": 52.2734773,
  "lon": 20.9306444,
  "chleb": 5,
  "maslo": 7,
  "ser": 21,
  "jajka": 1,
  "szynka": 33,
  "kielbasa": 15,
  "cukier": 5,
  "mleko": 2,
  "smietana": 4,
  "mineralna": 2
},
{
  "shopName": "Biedronka",
  "city": "Warszawa",
  "address": "Pańska 98",
  "lat": 52.2309497,
  "lon": 20.9887142,
  "chleb": 4,
  "maslo": 5,
  "ser": 26,
  "jajka": 1,
  "szynka": 34,
  "kielbasa": 19,
  "cukier": 3,
  "mleko": 4,
  "smietana": 6,
  "mineralna": 1
},
{
  "shopName": "Biedronka",
  "city": "Warszawa",
  "address": "Stanisława Dubois 5A",
  "lat": 52.2514949,
  "lon": 20.9937633,
  "chleb": 7,
  "maslo": 8,
  "ser": 23,
  "jajka": 1,
  "szynka": 28,
  "kielbasa": 14,
  "cukier": 5,
  "mleko": 2,
  "smietana": 8,
  "mineralna": 1
},
{
  "shopName": "Biedronka",
  "city": "Warszawa",
  "address": "Jana Kazimierza 62",
  "lat": 52.2220379,
  "lon": 20.9337054,
  "chleb": 7,
  "maslo": 8,
  "ser": 24,
  "jajka": 1,
  "szynka": 28,
  "kielbasa": 15,
  "cukier": 5,
  "mleko": 4,
  "smietana": 4,
  "mineralna": 1
},
{
  "shopName": "Biedronka",
  "city": "Warszawa",
  "address": "Głębocka 13",
  "lat": 52.3013443,
  "lon": 21.0572713,
  "chleb": 7,
  "maslo": 4,
  "ser": 18,
  "jajka": 2,
  "szynka": 37,
  "kielbasa": 20,
  "cukier": 4,
  "mleko": 3,
  "smietana": 6,
  "mineralna": 1
},
{
  "shopName": "Biedronka",
  "city": "Warszawa",
  "address": "Osowska 84",
  "lat": 52.2469712,
  "lon": 21.0945747,
  "chleb": 7,
  "maslo": 6,
  "ser": 23,
  "jajka": 2,
  "szynka": 38,
  "kielbasa": 12,
  "cukier": 5,
  "mleko": 3,
  "smietana": 7,
  "mineralna": 1
},
{
  "shopName": "Biedronka",
  "city": "Warszawa",
  "address": "Mangalia 2A",
  "lat": 52.1872537,
  "lon": 21.0472413,
  "chleb": 5,
  "maslo": 7,
  "ser": 32,
  "jajka": 2,
  "szynka": 33,
  "kielbasa": 16,
  "cukier": 6,
  "mleko": 2,
  "smietana": 8,
  "mineralna": 2
},
{
  "shopName": "Biedronka",
  "city": "Warszawa",
  "address": "Grochowska 338/340",
  "lat": 52.2472828,
  "lon": 21.0568093,
  "chleb": 5,
  "maslo": 7,
  "ser": 21,
  "jajka": 2,
  "szynka": 39,
  "kielbasa": 14,
  "cukier": 6,
  "mleko": 5,
  "smietana": 8,
  "mineralna": 2
},
{
  "shopName": "Biedronka",
  "city": "Warszawa",
  "address": "Stanisława Szobera 3A",
  "lat": 52.2361153,
  "lon": 20.8988661,
  "chleb": 6,
  "maslo": 6,
  "ser": 23,
  "jajka": 2,
  "szynka": 38,
  "kielbasa": 15,
  "cukier": 5,
  "mleko": 2,
  "smietana": 5,
  "mineralna": 1
},
{
  "shopName": "Biedronka",
  "city": "Warszawa",
  "address": "Konstruktorska 10C",
  "lat": 52.1856506,
  "lon": 20.9895982,
  "chleb": 4,
  "maslo": 7,
  "ser": 22,
  "jajka": 2,
  "szynka": 31,
  "kielbasa": 19,
  "cukier": 4,
  "mleko": 2,
  "smietana": 8,
  "mineralna": 2
},
{
  "shopName": "Biedronka",
  "city": "Warszawa",
  "address": "Warszawska 291",
  "lat": 52.1986501,
  "lon": 20.8721295,
  "chleb": 5,
  "maslo": 4,
  "ser": 28,
  "jajka": 1,
  "szynka": 35,
  "kielbasa": 16,
  "cukier": 5,
  "mleko": 4,
  "smietana": 6,
  "mineralna": 1
},
{
  "shopName": "Biedronka",
  "city": "Warszawa",
  "address": "Kochanowskiego 45/47",
  "lat": 52.2701226,
  "lon": 20.9382808,
  "chleb": 5,
  "maslo": 8,
  "ser": 20,
  "jajka": 2,
  "szynka": 27,
  "kielbasa": 15,
  "cukier": 5,
  "mleko": 3,
  "smietana": 7,
  "mineralna": 2
},
{
  "shopName": "Biedronka",
  "city": "Warszawa",
  "address": "Jagiellońska 82",
  "lat": 52.2722136,
  "lon": 21.0184053,
  "chleb": 5,
  "maslo": 4,
  "ser": 27,
  "jajka": 2,
  "szynka": 37,
  "kielbasa": 15,
  "cukier": 5,
  "mleko": 5,
  "smietana": 8,
  "mineralna": 1
},
{
  "shopName": "Biedronka",
  "city": "Warszawa",
  "address": "Terespolska 4",
  "lat": 52.2493966,
  "lon": 21.0703954,
  "chleb": 7,
  "maslo": 6,
  "ser": 26,
  "jajka": 1,
  "szynka": 29,
  "kielbasa": 12,
  "cukier": 5,
  "mleko": 2,
  "smietana": 5,
  "mineralna": 1
},
{
  "shopName": "Biedronka",
  "city": "Warszawa",
  "address": "Światowida 20",
  "lat": 52.3163689,
  "lon": 20.9590635,
  "chleb": 6,
  "maslo": 8,
  "ser": 24,
  "jajka": 1,
  "szynka": 34,
  "kielbasa": 17,
  "cukier": 4,
  "mleko": 2,
  "smietana": 8,
  "mineralna": 2
},
{
  "shopName": "Biedronka",
  "city": "Warszawa",
  "address": "Wrocławska 8",
  "lat": 52.2478024,
  "lon": 20.9166027,
  "chleb": 7,
  "maslo": 4,
  "ser": 20,
  "jajka": 1,
  "szynka": 40,
  "kielbasa": 18,
  "cukier": 6,
  "mleko": 3,
  "smietana": 8,
  "mineralna": 1
},
{
  "shopName": "Biedronka",
  "city": "Warszawa",
  "address": "Ostródzka 114",
  "lat": 52.317835,
  "lon": 21.051919,
  "chleb": 6,
  "maslo": 6,
  "ser": 20,
  "jajka": 1,
  "szynka": 34,
  "kielbasa": 13,
  "cukier": 5,
  "mleko": 4,
  "smietana": 4,
  "mineralna": 1
},
{
  "shopName": "Biedronka",
  "city": "Warszawa",
  "address": "Jana Olbrachta 46",
  "lat": 52.2357921,
  "lon": 20.9372553,
  "chleb": 6,
  "maslo": 8,
  "ser": 21,
  "jajka": 2,
  "szynka": 37,
  "kielbasa": 19,
  "cukier": 6,
  "mleko": 5,
  "smietana": 5,
  "mineralna": 1
},
{
  "shopName": "Biedronka",
  "city": "Warszawa",
  "address": "Rydygiera 19",
  "lat": 52.2603132,
  "lon": 20.9867117,
  "chleb": 5,
  "maslo": 8,
  "ser": 24,
  "jajka": 2,
  "szynka": 34,
  "kielbasa": 13,
  "cukier": 3,
  "mleko": 3,
  "smietana": 4,
  "mineralna": 1
},
{
  "shopName": "Biedronka",
  "city": "Warszawa",
  "address": "Orląt Lwowskich 70",
  "lat": 52.1916308,
  "lon": 20.8619164,
  "chleb": 6,
  "maslo": 6,
  "ser": 30,
  "jajka": 2,
  "szynka": 37,
  "kielbasa": 13,
  "cukier": 3,
  "mleko": 5,
  "smietana": 5,
  "mineralna": 1
},
{
  "shopName": "Biedronka",
  "city": "Warszawa",
  "address": "Plac Hallera 6",
  "lat": 52.260382,
  "lon": 21.0285038,
  "chleb": 6,
  "maslo": 6,
  "ser": 28,
  "jajka": 1,
  "szynka": 39,
  "kielbasa": 16,
  "cukier": 6,
  "mleko": 5,
  "smietana": 6,
  "mineralna": 2
},
{
  "shopName": "Biedronka",
  "city": "Warszawa",
  "address": "Hanki Ordonówny 12",
  "lat": 52.331709,
  "lon": 20.9462142,
  "chleb": 4,
  "maslo": 4,
  "ser": 30,
  "jajka": 2,
  "szynka": 31,
  "kielbasa": 15,
  "cukier": 6,
  "mleko": 4,
  "smietana": 8,
  "mineralna": 2
},
{
  "shopName": "Biedronka",
  "city": "Warszawa",
  "address": "Przemysława Gintrowskiego 28",
  "lat": 52.173927,
  "lon": 21.0034319,
  "chleb": 5,
  "maslo": 7,
  "ser": 16,
  "jajka": 1,
  "szynka": 37,
  "kielbasa": 12,
  "cukier": 3,
  "mleko": 5,
  "smietana": 8,
  "mineralna": 1
},
{
  "shopName": "Lidl",
  "city": "Warszawa",
  "address": "Wileńska 14",
  "lat": 52.2579311,
  "lon": 21.0413824,
  "chleb": 6,
  "maslo": 8,
  "ser": 24,
  "jajka": 1,
  "szynka": 25,
  "kielbasa": 18,
  "cukier": 3,
  "mleko": 5,
  "smietana": 7,
  "mineralna": 2
},
{
  "shopName": "Lidl",
  "city": "Warszawa",
  "address": "Myśliborska 94",
  "lat": 52.318021,
  "lon": 20.9611298,
  "chleb": 4,
  "maslo": 6,
  "ser": 28,
  "jajka": 2,
  "szynka": 39,
  "kielbasa": 19,
  "cukier": 3,
  "mleko": 4,
  "smietana": 7,
  "mineralna": 1
},
{
  "shopName": "Biedronka",
  "city": "Warszawa",
  "address": "Pałacowa 2",
  "lat": 52.1469665,
  "lon": 21.0918596,
  "chleb": 6,
  "maslo": 8,
  "ser": 27,
  "jajka": 2,
  "szynka": 33,
  "kielbasa": 17,
  "cukier": 4,
  "mleko": 5,
  "smietana": 4,
  "mineralna": 2
},
{
  "shopName": "Lidl",
  "city": "Warszawa",
  "address": "Powstańców Śląskich 72",
  "lat": 52.2400711,
  "lon": 20.9140406,
  "chleb": 6,
  "maslo": 5,
  "ser": 23,
  "jajka": 2,
  "szynka": 29,
  "kielbasa": 20,
  "cukier": 3,
  "mleko": 3,
  "smietana": 4,
  "mineralna": 2
},
{
  "shopName": "Lidl",
  "city": "Warszawa",
  "address": "Jana Nowaka Jeziorańskiego 35",
  "lat": 52.230021,
  "lon": 21.0842184,
  "chleb": 5,
  "maslo": 6,
  "ser": 23,
  "jajka": 1,
  "szynka": 28,
  "kielbasa": 18,
  "cukier": 3,
  "mleko": 3,
  "smietana": 8,
  "mineralna": 1
},
{
  "shopName": "Lidl",
  "city": "Warszawa",
  "address": "Grochowska 147",
  "lat": 52.2422609,
  "lon": 21.0989424,
  "chleb": 7,
  "maslo": 7,
  "ser": 19,
  "jajka": 2,
  "szynka": 32,
  "kielbasa": 15,
  "cukier": 4,
  "mleko": 3,
  "smietana": 4,
  "mineralna": 2
},
{
  "shopName": "Lidl",
  "city": "Warszawa",
  "address": "Modlińska 35",
  "lat": 52.3040664,
  "lon": 20.9870423,
  "chleb": 6,
  "maslo": 4,
  "ser": 27,
  "jajka": 1,
  "szynka": 34,
  "kielbasa": 20,
  "cukier": 4,
  "mleko": 4,
  "smietana": 4,
  "mineralna": 2
},
{
  "shopName": "Carrefour",
  "city": "Warszawa",
  "address": "Bednarska 14",
  "lat": 52.2452433,
  "lon": 21.0180808,
  "chleb": 6,
  "maslo": 7,
  "ser": 24,
  "jajka": 2,
  "szynka": 30,
  "kielbasa": 19,
  "cukier": 3,
  "mleko": 2,
  "smietana": 8,
  "mineralna": 2
},
{
  "shopName": "Biedronka",
  "city": "Warszawa",
  "address": "Nowolipie 7A",
  "lat": 52.2448957,
  "lon": 20.9965483,
  "chleb": 4,
  "maslo": 4,
  "ser": 24,
  "jajka": 1,
  "szynka": 29,
  "kielbasa": 17,
  "cukier": 5,
  "mleko": 2,
  "smietana": 7,
  "mineralna": 2
},
{
  "shopName": "Carrefour",
  "city": "Warszawa",
  "address": "Białobrzeska 28",
  "lat": 52.2139917,
  "lon": 20.9745066,
  "chleb": 4,
  "maslo": 8,
  "ser": 17,
  "jajka": 2,
  "szynka": 30,
  "kielbasa": 20,
  "cukier": 5,
  "mleko": 5,
  "smietana": 8,
  "mineralna": 1
},
{
  "shopName": "Carrefour",
  "city": "Warszawa",
  "address": "Bartłomieja 3",
  "lat": 52.1684554,
  "lon": 21.007054,
  "chleb": 4,
  "maslo": 7,
  "ser": 19,
  "jajka": 2,
  "szynka": 37,
  "kielbasa": 20,
  "cukier": 6,
  "mleko": 5,
  "smietana": 7,
  "mineralna": 1
},
{
  "shopName": "Carrefour",
  "city": "Warszawa",
  "address": "Anielewicza 3/5",
  "lat": 52.2488859,
  "lon": 20.9959673,
  "chleb": 7,
  "maslo": 7,
  "ser": 19,
  "jajka": 2,
  "szynka": 29,
  "kielbasa": 20,
  "cukier": 3,
  "mleko": 2,
  "smietana": 8,
  "mineralna": 2
},
{
  "shopName": "Biedronka",
  "city": "Warszawa",
  "address": "Dobosza 12",
  "lat": 52.2111454,
  "lon": 20.9663667,
  "chleb": 5,
  "maslo": 7,
  "ser": 28,
  "jajka": 2,
  "szynka": 26,
  "kielbasa": 17,
  "cukier": 4,
  "mleko": 2,
  "smietana": 5,
  "mineralna": 1
},
{
  "shopName": "Carrefour",
  "city": "Warszawa",
  "address": "Gen. Zajączka 9",
  "lat": 52.22977,
  "lon": 21.01178,
  "chleb": 4,
  "maslo": 4,
  "ser": 19,
  "jajka": 2,
  "szynka": 30,
  "kielbasa": 13,
  "cukier": 5,
  "mleko": 3,
  "smietana": 6,
  "mineralna": 1
},
{
  "shopName": "Carrefour",
  "city": "Warszawa",
  "address": "Gen. T. Pełczyńskiego 16",
  "lat": 52.22977,
  "lon": 21.01178,
  "chleb": 4,
  "maslo": 6,
  "ser": 22,
  "jajka": 2,
  "szynka": 35,
  "kielbasa": 12,
  "cukier": 5,
  "mleko": 2,
  "smietana": 8,
  "mineralna": 2
},
{
  "shopName": "Carrefour",
  "city": "Warszawa",
  "address": "Bora Komorowskiego 4/201A",
  "lat": 52.22977,
  "lon": 21.01178,
  "chleb": 4,
  "maslo": 7,
  "ser": 19,
  "jajka": 2,
  "szynka": 25,
  "kielbasa": 17,
  "cukier": 6,
  "mleko": 2,
  "smietana": 6,
  "mineralna": 2
},
{
  "shopName": "Tesco",
  "city": "Warszawa",
  "address": "Fieldorfa 37",
  "lat": 52.2293031,
  "lon": 21.0936304,
  "chleb": 7,
  "maslo": 8,
  "ser": 32,
  "jajka": 1,
  "szynka": 40,
  "kielbasa": 13,
  "cukier": 6,
  "mleko": 5,
  "smietana": 4,
  "mineralna": 1
},
{
  "shopName": "Biedronka",
  "city": "Warszawa",
  "address": "Carla Goldoniego 1",
  "lat": 52.2849755,
  "lon": 20.9353065,
  "chleb": 6,
  "maslo": 6,
  "ser": 28,
  "jajka": 1,
  "szynka": 34,
  "kielbasa": 15,
  "cukier": 4,
  "mleko": 3,
  "smietana": 6,
  "mineralna": 1
},
{
  "shopName": "Biedronka",
  "city": "Warszawa",
  "address": "Dereniowa 10",
  "lat": 52.1465504,
  "lon": 21.0436972,
  "chleb": 7,
  "maslo": 8,
  "ser": 23,
  "jajka": 1,
  "szynka": 33,
  "kielbasa": 20,
  "cukier": 3,
  "mleko": 5,
  "smietana": 4,
  "mineralna": 2
},
{
  "shopName": "Carrefour",
  "city": "Warszawa",
  "address": "Freta 27",
  "lat": 52.2522947,
  "lon": 21.007646,
  "chleb": 6,
  "maslo": 4,
  "ser": 17,
  "jajka": 2,
  "szynka": 33,
  "kielbasa": 12,
  "cukier": 4,
  "mleko": 2,
  "smietana": 4,
  "mineralna": 1
},
{
  "shopName": "Carrefour",
  "city": "Warszawa",
  "address": "Bruna 20",
  "lat": 52.2089832,
  "lon": 21.0013199,
  "chleb": 4,
  "maslo": 4,
  "ser": 26,
  "jajka": 1,
  "szynka": 28,
  "kielbasa": 19,
  "cukier": 6,
  "mleko": 5,
  "smietana": 4,
  "mineralna": 2
},
{
  "shopName": "Carrefour",
  "city": "Warszawa",
  "address": "Bobrowiecka 10",
  "lat": 52.1994535,
  "lon": 21.0471893,
  "chleb": 4,
  "maslo": 7,
  "ser": 29,
  "jajka": 2,
  "szynka": 28,
  "kielbasa": 13,
  "cukier": 5,
  "mleko": 5,
  "smietana": 5,
  "mineralna": 2
},
{
  "shopName": "Tesco",
  "city": "Warszawa",
  "address": "Światowida 41",
  "lat": 52.3175822,
  "lon": 20.9522681,
  "chleb": 4,
  "maslo": 6,
  "ser": 30,
  "jajka": 1,
  "szynka": 26,
  "kielbasa": 12,
  "cukier": 5,
  "mleko": 2,
  "smietana": 8,
  "mineralna": 2
},
{
  "shopName": "Carrefour",
  "city": "Warszawa",
  "address": "Czerniakowska 143",
  "lat": 52.2120976,
  "lon": 21.0467936,
  "chleb": 4,
  "maslo": 7,
  "ser": 19,
  "jajka": 1,
  "szynka": 27,
  "kielbasa": 20,
  "cukier": 3,
  "mleko": 5,
  "smietana": 8,
  "mineralna": 1
},
{
  "shopName": "Carrefour",
  "city": "Warszawa",
  "address": "Belgradzka 6",
  "lat": 52.1420226,
  "lon": 21.0632329,
  "chleb": 6,
  "maslo": 8,
  "ser": 19,
  "jajka": 2,
  "szynka": 38,
  "kielbasa": 19,
  "cukier": 6,
  "mleko": 4,
  "smietana": 8,
  "mineralna": 1
},
{
  "shopName": "Carrefour",
  "city": "Warszawa",
  "address": "Belgradzka 44",
  "lat": 52.1401593,
  "lon": 21.0566731,
  "chleb": 4,
  "maslo": 4,
  "ser": 20,
  "jajka": 2,
  "szynka": 26,
  "kielbasa": 13,
  "cukier": 3,
  "mleko": 4,
  "smietana": 5,
  "mineralna": 1
},
{
  "shopName": "Carrefour",
  "city": "Warszawa",
  "address": "Dobra 17",
  "lat": 52.2374434,
  "lon": 21.0290833,
  "chleb": 5,
  "maslo": 5,
  "ser": 27,
  "jajka": 1,
  "szynka": 40,
  "kielbasa": 15,
  "cukier": 4,
  "mleko": 2,
  "smietana": 5,
  "mineralna": 2
},
{
  "shopName": "Biedronka",
  "city": "Warszawa",
  "address": "Grzybowska 32",
  "lat": 52.2358716,
  "lon": 20.9948775,
  "chleb": 7,
  "maslo": 7,
  "ser": 32,
  "jajka": 2,
  "szynka": 38,
  "kielbasa": 14,
  "cukier": 6,
  "mleko": 2,
  "smietana": 5,
  "mineralna": 2
},
{
  "shopName": "Biedronka",
  "city": "Warszawa",
  "address": "Grzybowska 61",
  "lat": 52.2334907,
  "lon": 20.9873565,
  "chleb": 6,
  "maslo": 4,
  "ser": 26,
  "jajka": 2,
  "szynka": 34,
  "kielbasa": 14,
  "cukier": 3,
  "mleko": 2,
  "smietana": 5,
  "mineralna": 2
},
{
  "shopName": "Biedronka",
  "city": "Warszawa",
  "address": "Kopijników 6",
  "lat": 52.3007851,
  "lon": 21.0311541,
  "chleb": 5,
  "maslo": 8,
  "ser": 18,
  "jajka": 1,
  "szynka": 40,
  "kielbasa": 19,
  "cukier": 5,
  "mleko": 3,
  "smietana": 5,
  "mineralna": 1
},
{
  "shopName": "Carrefour",
  "city": "Warszawa",
  "address": "Hoża 29/31",
  "lat": 52.2262846,
  "lon": 21.0148969,
  "chleb": 5,
  "maslo": 6,
  "ser": 24,
  "jajka": 2,
  "szynka": 25,
  "kielbasa": 12,
  "cukier": 6,
  "mleko": 5,
  "smietana": 6,
  "mineralna": 2
},
{
  "shopName": "Carrefour",
  "city": "Warszawa",
  "address": "Gwiaździsta 15A",
  "lat": 52.2806992,
  "lon": 20.9850958,
  "chleb": 6,
  "maslo": 6,
  "ser": 31,
  "jajka": 1,
  "szynka": 34,
  "kielbasa": 20,
  "cukier": 5,
  "mleko": 2,
  "smietana": 8,
  "mineralna": 1
},
{
  "shopName": "Carrefour",
  "city": "Warszawa",
  "address": "Górczewska 23",
  "lat": 52.2370465,
  "lon": 20.964205,
  "chleb": 6,
  "maslo": 6,
  "ser": 25,
  "jajka": 1,
  "szynka": 25,
  "kielbasa": 17,
  "cukier": 3,
  "mleko": 4,
  "smietana": 5,
  "mineralna": 1
},
{
  "shopName": "Biedronka",
  "city": "Warszawa",
  "address": "Piotra Wysockiego 10",
  "lat": 52.2876395,
  "lon": 21.0219671,
  "chleb": 4,
  "maslo": 6,
  "ser": 26,
  "jajka": 1,
  "szynka": 36,
  "kielbasa": 18,
  "cukier": 3,
  "mleko": 2,
  "smietana": 6,
  "mineralna": 2
},
{
  "shopName": "Carrefour",
  "city": "Warszawa",
  "address": "Franciszka Kostrzewskiego 8",
  "lat": 52.1966609,
  "lon": 21.0366714,
  "chleb": 7,
  "maslo": 7,
  "ser": 16,
  "jajka": 2,
  "szynka": 26,
  "kielbasa": 18,
  "cukier": 5,
  "mleko": 4,
  "smietana": 4,
  "mineralna": 2
},
{
  "shopName": "Carrefour",
  "city": "Warszawa",
  "address": "Grochowska 210/212",
  "lat": 52.245449,
  "lon": 21.0854566,
  "chleb": 4,
  "maslo": 7,
  "ser": 25,
  "jajka": 1,
  "szynka": 35,
  "kielbasa": 16,
  "cukier": 4,
  "mleko": 3,
  "smietana": 6,
  "mineralna": 1
},
{
  "shopName": "Carrefour",
  "city": "Warszawa",
  "address": "Galeria Północna Światowida 17",
  "lat": 52.3176084,
  "lon": 20.9666113,
  "chleb": 5,
  "maslo": 7,
  "ser": 23,
  "jajka": 2,
  "szynka": 26,
  "kielbasa": 17,
  "cukier": 3,
  "mleko": 3,
  "smietana": 8,
  "mineralna": 2
},
{
  "shopName": "Carrefour",
  "city": "Warszawa",
  "address": "Domaniewska 31",
  "lat": 52.1831906,
  "lon": 21.0125082,
  "chleb": 6,
  "maslo": 5,
  "ser": 19,
  "jajka": 1,
  "szynka": 36,
  "kielbasa": 16,
  "cukier": 3,
  "mleko": 2,
  "smietana": 7,
  "mineralna": 1
},
{
  "shopName": "Carrefour",
  "city": "Warszawa",
  "address": "Domeyki 1",
  "lat": 52.2431774,
  "lon": 21.1067462,
  "chleb": 5,
  "maslo": 8,
  "ser": 24,
  "jajka": 2,
  "szynka": 38,
  "kielbasa": 18,
  "cukier": 3,
  "mleko": 5,
  "smietana": 4,
  "mineralna": 1
},
{
  "shopName": "Biedronka",
  "city": "Warszawa",
  "address": "Kamyk 14",
  "lat": 51.47813,
  "lon": 21.48289,
  "chleb": 6,
  "maslo": 7,
  "ser": 16,
  "jajka": 2,
  "szynka": 28,
  "kielbasa": 15,
  "cukier": 3,
  "mleko": 4,
  "smietana": 8,
  "mineralna": 1
},
{
  "shopName": "Carrefour",
  "city": "Warszawa",
  "address": "Racławicka 125",
  "lat": 52.1976847,
  "lon": 20.9824616,
  "chleb": 7,
  "maslo": 8,
  "ser": 32,
  "jajka": 1,
  "szynka": 25,
  "kielbasa": 17,
  "cukier": 4,
  "mleko": 5,
  "smietana": 7,
  "mineralna": 2
},
{
  "shopName": "Carrefour",
  "city": "Warszawa",
  "address": "Siodlarska 12",
  "lat": 52.243656,
  "lon": 20.918172,
  "chleb": 6,
  "maslo": 7,
  "ser": 23,
  "jajka": 2,
  "szynka": 31,
  "kielbasa": 14,
  "cukier": 3,
  "mleko": 4,
  "smietana": 6,
  "mineralna": 2
},
{
  "shopName": "Carrefour",
  "city": "Warszawa",
  "address": "Niepodległości 43",
  "lat": 52.1873383,
  "lon": 21.0174148,
  "chleb": 5,
  "maslo": 7,
  "ser": 17,
  "jajka": 1,
  "szynka": 28,
  "kielbasa": 19,
  "cukier": 6,
  "mleko": 4,
  "smietana": 7,
  "mineralna": 2
},
{
  "shopName": "Carrefour",
  "city": "Warszawa",
  "address": "Świderska 113",
  "lat": 52.3184898,
  "lon": 20.9456599,
  "chleb": 7,
  "maslo": 7,
  "ser": 31,
  "jajka": 1,
  "szynka": 26,
  "kielbasa": 12,
  "cukier": 5,
  "mleko": 4,
  "smietana": 7,
  "mineralna": 1
},
{
  "shopName": "Carrefour",
  "city": "Warszawa",
  "address": "Naruszewicza 25",
  "lat": 52.1907189,
  "lon": 21.0182342,
  "chleb": 5,
  "maslo": 6,
  "ser": 31,
  "jajka": 2,
  "szynka": 34,
  "kielbasa": 12,
  "cukier": 5,
  "mleko": 2,
  "smietana": 8,
  "mineralna": 1
},
{
  "shopName": "Carrefour",
  "city": "Warszawa",
  "address": "Pużaka 1",
  "lat": 52.1907997,
  "lon": 20.8930767,
  "chleb": 6,
  "maslo": 8,
  "ser": 24,
  "jajka": 1,
  "szynka": 34,
  "kielbasa": 19,
  "cukier": 3,
  "mleko": 3,
  "smietana": 5,
  "mineralna": 2
},
{
  "shopName": "Carrefour",
  "city": "Warszawa",
  "address": "Płocka 46",
  "lat": 52.2423831,
  "lon": 20.9658972,
  "chleb": 7,
  "maslo": 5,
  "ser": 26,
  "jajka": 2,
  "szynka": 38,
  "kielbasa": 18,
  "cukier": 4,
  "mleko": 4,
  "smietana": 7,
  "mineralna": 2
},
{
  "shopName": "Carrefour",
  "city": "Warszawa",
  "address": "Rechniewskiego 13",
  "lat": 52.2290009,
  "lon": 21.1055396,
  "chleb": 4,
  "maslo": 8,
  "ser": 23,
  "jajka": 1,
  "szynka": 33,
  "kielbasa": 15,
  "cukier": 5,
  "mleko": 2,
  "smietana": 5,
  "mineralna": 2
},
{
  "shopName": "Biedronka",
  "city": "Warszawa",
  "address": "Złotej Wilgi 2",
  "lat": 52.2264457,
  "lon": 21.0969534,
  "chleb": 6,
  "maslo": 4,
  "ser": 19,
  "jajka": 2,
  "szynka": 40,
  "kielbasa": 18,
  "cukier": 4,
  "mleko": 4,
  "smietana": 7,
  "mineralna": 1
},
{
  "shopName": "Carrefour",
  "city": "Warszawa",
  "address": "Skaryszewska 2",
  "lat": 52.2483134,
  "lon": 21.0471919,
  "chleb": 5,
  "maslo": 7,
  "ser": 31,
  "jajka": 1,
  "szynka": 36,
  "kielbasa": 15,
  "cukier": 3,
  "mleko": 5,
  "smietana": 8,
  "mineralna": 1
},
{
  "shopName": "Carrefour",
  "city": "Warszawa",
  "address": "Sternicza 96",
  "lat": 52.221351,
  "lon": 20.8998062,
  "chleb": 4,
  "maslo": 6,
  "ser": 25,
  "jajka": 2,
  "szynka": 27,
  "kielbasa": 13,
  "cukier": 6,
  "mleko": 2,
  "smietana": 8,
  "mineralna": 2
},
{
  "shopName": "Carrefour",
  "city": "Warszawa",
  "address": "Rzeczypospolitej 6",
  "lat": 52.1584522,
  "lon": 21.0753307,
  "chleb": 4,
  "maslo": 6,
  "ser": 20,
  "jajka": 1,
  "szynka": 28,
  "kielbasa": 17,
  "cukier": 6,
  "mleko": 2,
  "smietana": 6,
  "mineralna": 1
},
{
  "shopName": "Carrefour",
  "city": "Warszawa",
  "address": "Plac Narutowicza II",
  "lat": 52.22977,
  "lon": 21.01178,
  "chleb": 5,
  "maslo": 8,
  "ser": 24,
  "jajka": 2,
  "szynka": 32,
  "kielbasa": 16,
  "cukier": 3,
  "mleko": 4,
  "smietana": 7,
  "mineralna": 2
},
{
  "shopName": "Carrefour",
  "city": "Warszawa",
  "address": "Nugat 9",
  "lat": 52.1553754,
  "lon": 21.051556,
  "chleb": 4,
  "maslo": 4,
  "ser": 28,
  "jajka": 1,
  "szynka": 37,
  "kielbasa": 20,
  "cukier": 4,
  "mleko": 5,
  "smietana": 7,
  "mineralna": 2
},
{
  "shopName": "Carrefour",
  "city": "Warszawa",
  "address": "Plac Przymierza",
  "lat": 52.2312009,
  "lon": 21.0560941,
  "chleb": 7,
  "maslo": 5,
  "ser": 21,
  "jajka": 2,
  "szynka": 32,
  "kielbasa": 20,
  "cukier": 4,
  "mleko": 4,
  "smietana": 8,
  "mineralna": 1
},
{
  "shopName": "Lidl",
  "city": "Warszawa",
  "address": "Conrada 1",
  "lat": 52.2700251,
  "lon": 20.9321759,
  "chleb": 7,
  "maslo": 6,
  "ser": 32,
  "jajka": 2,
  "szynka": 32,
  "kielbasa": 20,
  "cukier": 4,
  "mleko": 5,
  "smietana": 6,
  "mineralna": 1
},
{
  "shopName": "Biedronka",
  "city": "Warszawa",
  "address": "Wojciechowskiego 41",
  "lat": 52.194195,
  "lon": 20.8683909,
  "chleb": 6,
  "maslo": 7,
  "ser": 24,
  "jajka": 1,
  "szynka": 25,
  "kielbasa": 13,
  "cukier": 3,
  "mleko": 4,
  "smietana": 7,
  "mineralna": 1
},
{
  "shopName": "Biedronka",
  "city": "Warszawa",
  "address": "Jana III Sobieskiego 18",
  "lat": 52.1749435,
  "lon": 21.0638116,
  "chleb": 4,
  "maslo": 4,
  "ser": 19,
  "jajka": 2,
  "szynka": 38,
  "kielbasa": 17,
  "cukier": 3,
  "mleko": 5,
  "smietana": 6,
  "mineralna": 2
},
{
  "shopName": "Carrefour",
  "city": "Warszawa",
  "address": "Emilii Plater 47",
  "lat": 52.2314668,
  "lon": 21.0031419,
  "chleb": 6,
  "maslo": 7,
  "ser": 31,
  "jajka": 2,
  "szynka": 26,
  "kielbasa": 19,
  "cukier": 3,
  "mleko": 2,
  "smietana": 7,
  "mineralna": 2
},
{
  "shopName": "Biedronka",
  "city": "Warszawa",
  "address": "Ogrodowa 58",
  "lat": 52.2373237,
  "lon": 20.9817806,
  "chleb": 4,
  "maslo": 5,
  "ser": 24,
  "jajka": 1,
  "szynka": 28,
  "kielbasa": 20,
  "cukier": 3,
  "mleko": 2,
  "smietana": 4,
  "mineralna": 1
},
{
  "shopName": "Carrefour",
  "city": "Warszawa",
  "address": "Białołęcka 222",
  "lat": 52.3172856,
  "lon": 21.030177,
  "chleb": 5,
  "maslo": 7,
  "ser": 27,
  "jajka": 1,
  "szynka": 29,
  "kielbasa": 13,
  "cukier": 5,
  "mleko": 2,
  "smietana": 8,
  "mineralna": 2
},
{
  "shopName": "Lidl",
  "city": "Warszawa",
  "address": "Wołoska 16",
  "lat": 52.1813506,
  "lon": 21.0037744,
  "chleb": 4,
  "maslo": 4,
  "ser": 18,
  "jajka": 1,
  "szynka": 36,
  "kielbasa": 17,
  "cukier": 4,
  "mleko": 5,
  "smietana": 7,
  "mineralna": 1
},
{
  "shopName": "Tesco",
  "city": "Warszawa",
  "address": "Młynarska 1",
  "lat": 52.2369257,
  "lon": 20.9719725,
  "chleb": 4,
  "maslo": 8,
  "ser": 31,
  "jajka": 1,
  "szynka": 27,
  "kielbasa": 17,
  "cukier": 3,
  "mleko": 5,
  "smietana": 7,
  "mineralna": 1
},
{
  "shopName": "Lidl",
  "city": "Warszawa",
  "address": "Przy trasie 5",
  "lat": 52.3077745,
  "lon": 21.0627692,
  "chleb": 4,
  "maslo": 4,
  "ser": 19,
  "jajka": 2,
  "szynka": 34,
  "kielbasa": 19,
  "cukier": 5,
  "mleko": 4,
  "smietana": 6,
  "mineralna": 2
},
{
  "shopName": "Biedronka",
  "city": "Warszawa",
  "address": "Aleje Jerozolimskie 56C",
  "lat": 52.2270186,
  "lon": 20.9970311,
  "chleb": 7,
  "maslo": 7,
  "ser": 30,
  "jajka": 1,
  "szynka": 34,
  "kielbasa": 16,
  "cukier": 4,
  "mleko": 2,
  "smietana": 5,
  "mineralna": 1
},
{
  "shopName": "Biedronka",
  "city": "Warszawa",
  "address": "Lazurowa 71",
  "lat": 52.2300352,
  "lon": 20.8959958,
  "chleb": 7,
  "maslo": 6,
  "ser": 20,
  "jajka": 2,
  "szynka": 32,
  "kielbasa": 15,
  "cukier": 5,
  "mleko": 2,
  "smietana": 4,
  "mineralna": 2
},
{
  "shopName": "Carrefour",
  "city": "Warszawa",
  "address": "Targowa 61",
  "lat": 52.2526446,
  "lon": 21.0364949,
  "chleb": 7,
  "maslo": 8,
  "ser": 30,
  "jajka": 1,
  "szynka": 33,
  "kielbasa": 15,
  "cukier": 4,
  "mleko": 2,
  "smietana": 6,
  "mineralna": 2
},
{
  "shopName": "Carrefour",
  "city": "Warszawa",
  "address": "Wilcza 17",
  "lat": 52.2253658,
  "lon": 21.0186881,
  "chleb": 6,
  "maslo": 4,
  "ser": 30,
  "jajka": 1,
  "szynka": 29,
  "kielbasa": 18,
  "cukier": 6,
  "mleko": 3,
  "smietana": 6,
  "mineralna": 1
},
{
  "shopName": "Carrefour",
  "city": "Warszawa",
  "address": "Józefa Hallera 5",
  "lat": 52.260829,
  "lon": 21.0310814,
  "chleb": 5,
  "maslo": 5,
  "ser": 16,
  "jajka": 1,
  "szynka": 32,
  "kielbasa": 16,
  "cukier": 3,
  "mleko": 5,
  "smietana": 5,
  "mineralna": 1
},
{
  "shopName": "Carrefour",
  "city": "Warszawa",
  "address": "Wrzeciono 65",
  "lat": 52.2905377,
  "lon": 20.9467206,
  "chleb": 6,
  "maslo": 4,
  "ser": 28,
  "jajka": 2,
  "szynka": 37,
  "kielbasa": 16,
  "cukier": 6,
  "mleko": 2,
  "smietana": 7,
  "mineralna": 1
},
{
  "shopName": "Carrefour",
  "city": "Warszawa",
  "address": "Sienkiewicza 12/14",
  "lat": 52.2339836,
  "lon": 21.0103029,
  "chleb": 7,
  "maslo": 4,
  "ser": 24,
  "jajka": 2,
  "szynka": 40,
  "kielbasa": 20,
  "cukier": 4,
  "mleko": 2,
  "smietana": 6,
  "mineralna": 2
},
{
  "shopName": "Biedronka",
  "city": "Warszawa",
  "address": "Patriotów 110",
  "lat": 52.1738517,
  "lon": 21.199971,
  "chleb": 6,
  "maslo": 5,
  "ser": 23,
  "jajka": 1,
  "szynka": 26,
  "kielbasa": 17,
  "cukier": 3,
  "mleko": 4,
  "smietana": 4,
  "mineralna": 2
},
{
  "shopName": "Carrefour",
  "city": "Warszawa",
  "address": "Żelazna 82/84",
  "lat": 52.2392033,
  "lon": 20.9879069,
  "chleb": 6,
  "maslo": 5,
  "ser": 17,
  "jajka": 1,
  "szynka": 31,
  "kielbasa": 19,
  "cukier": 5,
  "mleko": 3,
  "smietana": 8,
  "mineralna": 1
},
{
  "shopName": "Carrefour",
  "city": "Warszawa",
  "address": "Grójecka 34",
  "lat": 52.220137,
  "lon": 20.9840243,
  "chleb": 5,
  "maslo": 4,
  "ser": 17,
  "jajka": 1,
  "szynka": 28,
  "kielbasa": 13,
  "cukier": 4,
  "mleko": 5,
  "smietana": 7,
  "mineralna": 2
},
{
  "shopName": "Carrefour",
  "city": "Warszawa",
  "address": "Jana Pawła II 18",
  "lat": 52.2184613,
  "lon": 21.2221727,
  "chleb": 4,
  "maslo": 8,
  "ser": 19,
  "jajka": 1,
  "szynka": 37,
  "kielbasa": 19,
  "cukier": 6,
  "mleko": 5,
  "smietana": 8,
  "mineralna": 1
},
{
  "shopName": "Carrefour",
  "city": "Warszawa",
  "address": "Jagiellońska 66A",
  "lat": 52.2625605,
  "lon": 21.0224444,
  "chleb": 7,
  "maslo": 8,
  "ser": 17,
  "jajka": 1,
  "szynka": 33,
  "kielbasa": 16,
  "cukier": 5,
  "mleko": 5,
  "smietana": 5,
  "mineralna": 1
},
{
  "shopName": "Carrefour",
  "city": "Warszawa",
  "address": "Geodetów 10",
  "lat": 52.2051888,
  "lon": 20.9702256,
  "chleb": 4,
  "maslo": 4,
  "ser": 24,
  "jajka": 1,
  "szynka": 36,
  "kielbasa": 18,
  "cukier": 3,
  "mleko": 5,
  "smietana": 8,
  "mineralna": 1
},
{
  "shopName": "Carrefour",
  "city": "Warszawa",
  "address": "Gieysztora 2",
  "lat": 52.1612484,
  "lon": 21.0820996,
  "chleb": 6,
  "maslo": 8,
  "ser": 27,
  "jajka": 1,
  "szynka": 37,
  "kielbasa": 15,
  "cukier": 4,
  "mleko": 4,
  "smietana": 5,
  "mineralna": 1
},
{
  "shopName": "Carrefour",
  "city": "Warszawa",
  "address": "Dzielna",
  "lat": 52.2467494,
  "lon": 20.9931038,
  "chleb": 5,
  "maslo": 7,
  "ser": 29,
  "jajka": 1,
  "szynka": 40,
  "kielbasa": 19,
  "cukier": 3,
  "mleko": 5,
  "smietana": 5,
  "mineralna": 2
},
{
  "shopName": "Carrefour",
  "city": "Warszawa",
  "address": "Górczewska 95",
  "lat": 52.2387469,
  "lon": 20.9452865,
  "chleb": 7,
  "maslo": 8,
  "ser": 22,
  "jajka": 1,
  "szynka": 32,
  "kielbasa": 19,
  "cukier": 4,
  "mleko": 4,
  "smietana": 7,
  "mineralna": 2
},
{
  "shopName": "Biedronka",
  "city": "Warszawa",
  "address": "Łabiszyńska 16",
  "lat": 52.2958217,
  "lon": 21.0335067,
  "chleb": 4,
  "maslo": 7,
  "ser": 17,
  "jajka": 1,
  "szynka": 28,
  "kielbasa": 16,
  "cukier": 6,
  "mleko": 3,
  "smietana": 6,
  "mineralna": 2
},
{
  "shopName": "Carrefour",
  "city": "Warszawa",
  "address": "Czerska 18",
  "lat": 52.2057358,
  "lon": 21.0456581,
  "chleb": 5,
  "maslo": 7,
  "ser": 16,
  "jajka": 2,
  "szynka": 28,
  "kielbasa": 14,
  "cukier": 3,
  "mleko": 4,
  "smietana": 8,
  "mineralna": 1
},
{
  "shopName": "Biedronka",
  "city": "Warszawa",
  "address": "Juliana Ursyna Niemcewicza 26",
  "lat": 52.2219567,
  "lon": 20.9803164,
  "chleb": 7,
  "maslo": 4,
  "ser": 27,
  "jajka": 1,
  "szynka": 28,
  "kielbasa": 14,
  "cukier": 6,
  "mleko": 2,
  "smietana": 4,
  "mineralna": 1
},
{
  "shopName": "Carrefour",
  "city": "Warszawa",
  "address": "Ujazdowskie 18",
  "lat": 52.226201,
  "lon": 21.0237416,
  "chleb": 4,
  "maslo": 5,
  "ser": 21,
  "jajka": 2,
  "szynka": 28,
  "kielbasa": 15,
  "cukier": 6,
  "mleko": 5,
  "smietana": 8,
  "mineralna": 1
},
{
  "shopName": "Carrefour",
  "city": "Warszawa",
  "address": "Zaułek 1",
  "lat": 52.3246569,
  "lon": 21.0657157,
  "chleb": 5,
  "maslo": 5,
  "ser": 18,
  "jajka": 2,
  "szynka": 29,
  "kielbasa": 13,
  "cukier": 4,
  "mleko": 2,
  "smietana": 7,
  "mineralna": 2
},
{
  "shopName": "Carrefour",
  "city": "Warszawa",
  "address": "Jerozolimskie 142A",
  "lat": 52.2190638,
  "lon": 20.9666913,
  "chleb": 7,
  "maslo": 7,
  "ser": 29,
  "jajka": 2,
  "szynka": 33,
  "kielbasa": 13,
  "cukier": 6,
  "mleko": 4,
  "smietana": 6,
  "mineralna": 2
},
{
  "shopName": "Carrefour",
  "city": "Warszawa",
  "address": "ONZ",
  "lat": 52.2332742,
  "lon": 20.9987232,
  "chleb": 4,
  "maslo": 6,
  "ser": 17,
  "jajka": 1,
  "szynka": 30,
  "kielbasa": 12,
  "cukier": 4,
  "mleko": 5,
  "smietana": 7,
  "mineralna": 2
},
{
  "shopName": "Carrefour",
  "city": "Warszawa",
  "address": "Hoża 37",
  "lat": 52.2257863,
  "lon": 21.0128451,
  "chleb": 7,
  "maslo": 6,
  "ser": 26,
  "jajka": 2,
  "szynka": 36,
  "kielbasa": 14,
  "cukier": 4,
  "mleko": 5,
  "smietana": 6,
  "mineralna": 2
},
{
  "shopName": "Carrefour",
  "city": "Warszawa",
  "address": "Światowida 58",
  "lat": 52.3306574,
  "lon": 20.9419684,
  "chleb": 7,
  "maslo": 5,
  "ser": 24,
  "jajka": 2,
  "szynka": 28,
  "kielbasa": 16,
  "cukier": 6,
  "mleko": 2,
  "smietana": 8,
  "mineralna": 1
},
{
  "shopName": "Carrefour",
  "city": "Warszawa",
  "address": "Światowida 18",
  "lat": 52.3198052,
  "lon": 20.9662945,
  "chleb": 4,
  "maslo": 4,
  "ser": 21,
  "jajka": 2,
  "szynka": 32,
  "kielbasa": 17,
  "cukier": 6,
  "mleko": 3,
  "smietana": 8,
  "mineralna": 2
},
{
  "shopName": "Carrefour",
  "city": "Warszawa",
  "address": "Modzelewskiego 42/44",
  "lat": 52.175601,
  "lon": 21.0140045,
  "chleb": 5,
  "maslo": 8,
  "ser": 24,
  "jajka": 1,
  "szynka": 35,
  "kielbasa": 20,
  "cukier": 4,
  "mleko": 3,
  "smietana": 4,
  "mineralna": 2
},
{
  "shopName": "Carrefour",
  "city": "Warszawa",
  "address": "Pereca 2",
  "lat": 52.2342082,
  "lon": 20.9963204,
  "chleb": 5,
  "maslo": 4,
  "ser": 17,
  "jajka": 2,
  "szynka": 31,
  "kielbasa": 19,
  "cukier": 5,
  "mleko": 4,
  "smietana": 8,
  "mineralna": 1
},
{
  "shopName": "Biedronka",
  "city": "Warszawa",
  "address": "Zwoleńska 122/128",
  "lat": 52.2036885,
  "lon": 21.1640271,
  "chleb": 6,
  "maslo": 8,
  "ser": 19,
  "jajka": 1,
  "szynka": 35,
  "kielbasa": 17,
  "cukier": 3,
  "mleko": 3,
  "smietana": 8,
  "mineralna": 2
},
{
  "shopName": "Carrefour",
  "city": "Warszawa",
  "address": "Leszczyńska 6",
  "lat": 52.2406804,
  "lon": 21.0252814,
  "chleb": 7,
  "maslo": 8,
  "ser": 17,
  "jajka": 1,
  "szynka": 31,
  "kielbasa": 20,
  "cukier": 5,
  "mleko": 3,
  "smietana": 4,
  "mineralna": 2
},
{
  "shopName": "Carrefour",
  "city": "Warszawa",
  "address": "Nowy Świat 42",
  "lat": 52.2344712,
  "lon": 21.0194229,
  "chleb": 4,
  "maslo": 7,
  "ser": 22,
  "jajka": 2,
  "szynka": 39,
  "kielbasa": 13,
  "cukier": 3,
  "mleko": 5,
  "smietana": 5,
  "mineralna": 1
},
{
  "shopName": "Biedronka",
  "city": "Warszawa",
  "address": "Wspólna 2",
  "lat": 52.2288536,
  "lon": 21.0205581,
  "chleb": 4,
  "maslo": 8,
  "ser": 26,
  "jajka": 2,
  "szynka": 31,
  "kielbasa": 13,
  "cukier": 4,
  "mleko": 2,
  "smietana": 6,
  "mineralna": 2
},
{
  "shopName": "Tesco",
  "city": "Warszawa",
  "address": "Młynarska 8/12",
  "lat": 52.2356943,
  "lon": 20.9731161,
  "chleb": 4,
  "maslo": 5,
  "ser": 26,
  "jajka": 1,
  "szynka": 36,
  "kielbasa": 14,
  "cukier": 5,
  "mleko": 2,
  "smietana": 4,
  "mineralna": 1
},
{
  "shopName": "Carrefour",
  "city": "Warszawa",
  "address": "Noakowskiego",
  "lat": 52.2213603,
  "lon": 21.0101343,
  "chleb": 7,
  "maslo": 6,
  "ser": 30,
  "jajka": 2,
  "szynka": 27,
  "kielbasa": 20,
  "cukier": 5,
  "mleko": 5,
  "smietana": 7,
  "mineralna": 2
},
{
  "shopName": "Biedronka",
  "city": "Warszawa",
  "address": "Solidarności 86/88",
  "lat": 52.2445598,
  "lon": 21.0024312,
  "chleb": 5,
  "maslo": 5,
  "ser": 29,
  "jajka": 1,
  "szynka": 29,
  "kielbasa": 16,
  "cukier": 4,
  "mleko": 4,
  "smietana": 4,
  "mineralna": 2
},
{
  "shopName": "Tesco",
  "city": "Warszawa",
  "address": "1 Maja 34",
  "lat": 52.245247,
  "lon": 21.216075,
  "chleb": 7,
  "maslo": 8,
  "ser": 28,
  "jajka": 1,
  "szynka": 30,
  "kielbasa": 17,
  "cukier": 5,
  "mleko": 3,
  "smietana": 8,
  "mineralna": 1
},
{
  "shopName": "Tesco",
  "city": "Warszawa",
  "address": "Połczyńska 121",
  "lat": 52.2142803,
  "lon": 20.8842343,
  "chleb": 7,
  "maslo": 5,
  "ser": 16,
  "jajka": 1,
  "szynka": 27,
  "kielbasa": 18,
  "cukier": 3,
  "mleko": 5,
  "smietana": 5,
  "mineralna": 1
},
{
  "shopName": "Biedronka",
  "city": "Warszawa",
  "address": "Migdałowa 4",
  "lat": 52.1473634,
  "lon": 21.0577647,
  "chleb": 7,
  "maslo": 7,
  "ser": 26,
  "jajka": 2,
  "szynka": 36,
  "kielbasa": 12,
  "cukier": 5,
  "mleko": 3,
  "smietana": 7,
  "mineralna": 2
},
{
  "shopName": "Carrefour",
  "city": "Warszawa",
  "address": "Zegadłowicza 1",
  "lat": 52.2273813,
  "lon": 20.9715038,
  "chleb": 4,
  "maslo": 8,
  "ser": 30,
  "jajka": 2,
  "szynka": 29,
  "kielbasa": 20,
  "cukier": 6,
  "mleko": 5,
  "smietana": 4,
  "mineralna": 1
},
{
  "shopName": "Carrefour",
  "city": "Warszawa",
  "address": "Wileńska",
  "lat": 52.2559257,
  "lon": 21.0352389,
  "chleb": 5,
  "maslo": 6,
  "ser": 19,
  "jajka": 2,
  "szynka": 36,
  "kielbasa": 13,
  "cukier": 3,
  "mleko": 2,
  "smietana": 4,
  "mineralna": 1
},
{
  "shopName": "Carrefour",
  "city": "Warszawa",
  "address": "Bohaterów Warszawy 26",
  "lat": 52.195163,
  "lon": 20.8871849,
  "chleb": 6,
  "maslo": 7,
  "ser": 23,
  "jajka": 1,
  "szynka": 25,
  "kielbasa": 18,
  "cukier": 3,
  "mleko": 5,
  "smietana": 4,
  "mineralna": 2
},
{
  "shopName": "Carrefour",
  "city": "Warszawa",
  "address": "Limanowskiego 2",
  "lat": 52.1922398,
  "lon": 21.0634522,
  "chleb": 5,
  "maslo": 7,
  "ser": 17,
  "jajka": 2,
  "szynka": 37,
  "kielbasa": 19,
  "cukier": 6,
  "mleko": 3,
  "smietana": 8,
  "mineralna": 1
},
{
  "shopName": "Carrefour",
  "city": "Warszawa",
  "address": "Góralska 7",
  "lat": 52.2389317,
  "lon": 20.9378533,
  "chleb": 4,
  "maslo": 8,
  "ser": 28,
  "jajka": 2,
  "szynka": 31,
  "kielbasa": 20,
  "cukier": 6,
  "mleko": 4,
  "smietana": 5,
  "mineralna": 1
},
{
  "shopName": "Biedronka",
  "city": "Warszawa",
  "address": "Jutrzenki 177",
  "lat": 52.2012406,
  "lon": 20.9374559,
  "chleb": 6,
  "maslo": 8,
  "ser": 23,
  "jajka": 2,
  "szynka": 33,
  "kielbasa": 17,
  "cukier": 6,
  "mleko": 4,
  "smietana": 6,
  "mineralna": 1
},
{
  "shopName": "Carrefour",
  "city": "Warszawa",
  "address": "Skarbka z Gór 120",
  "lat": 52.3181733,
  "lon": 21.0589772,
  "chleb": 4,
  "maslo": 8,
  "ser": 21,
  "jajka": 1,
  "szynka": 32,
  "kielbasa": 18,
  "cukier": 4,
  "mleko": 5,
  "smietana": 8,
  "mineralna": 1
},
{
  "shopName": "Biedronka",
  "city": "Warszawa",
  "address": "Marywilska 44",
  "lat": 52.319888,
  "lon": 21.0094736,
  "chleb": 5,
  "maslo": 6,
  "ser": 27,
  "jajka": 2,
  "szynka": 39,
  "kielbasa": 18,
  "cukier": 6,
  "mleko": 5,
  "smietana": 8,
  "mineralna": 2
},
{
  "shopName": "Carrefour",
  "city": "Warszawa",
  "address": "Czerniakowska 22",
  "lat": 52.2011464,
  "lon": 21.050625,
  "chleb": 7,
  "maslo": 7,
  "ser": 17,
  "jajka": 1,
  "szynka": 38,
  "kielbasa": 14,
  "cukier": 5,
  "mleko": 2,
  "smietana": 4,
  "mineralna": 1
},
{
  "shopName": "Biedronka",
  "city": "Warszawa",
  "address": "Łopuszańska 22",
  "lat": 52.1928506,
  "lon": 20.9512569,
  "chleb": 6,
  "maslo": 6,
  "ser": 16,
  "jajka": 1,
  "szynka": 36,
  "kielbasa": 12,
  "cukier": 4,
  "mleko": 2,
  "smietana": 7,
  "mineralna": 1
},
{
  "shopName": "Carrefour",
  "city": "Warszawa",
  "address": "Rudnickiego 10",
  "lat": 52.2676876,
  "lon": 20.9476201,
  "chleb": 6,
  "maslo": 8,
  "ser": 20,
  "jajka": 1,
  "szynka": 36,
  "kielbasa": 14,
  "cukier": 5,
  "mleko": 2,
  "smietana": 7,
  "mineralna": 1
},
{
  "shopName": "Carrefour",
  "city": "Warszawa",
  "address": "Kowalczyka 7",
  "lat": 52.3049577,
  "lon": 20.9921397,
  "chleb": 6,
  "maslo": 8,
  "ser": 28,
  "jajka": 2,
  "szynka": 33,
  "kielbasa": 18,
  "cukier": 4,
  "mleko": 4,
  "smietana": 8,
  "mineralna": 1
},
{
  "shopName": "Carrefour",
  "city": "Warszawa",
  "address": "Krakowska 139",
  "lat": 52.1799918,
  "lon": 20.9473544,
  "chleb": 7,
  "maslo": 5,
  "ser": 31,
  "jajka": 2,
  "szynka": 30,
  "kielbasa": 17,
  "cukier": 6,
  "mleko": 3,
  "smietana": 4,
  "mineralna": 2
},
{
  "shopName": "Carrefour",
  "city": "Warszawa",
  "address": "Łukowska 1",
  "lat": 52.2363686,
  "lon": 21.1125694,
  "chleb": 6,
  "maslo": 6,
  "ser": 16,
  "jajka": 2,
  "szynka": 28,
  "kielbasa": 19,
  "cukier": 5,
  "mleko": 3,
  "smietana": 7,
  "mineralna": 1
},
{
  "shopName": "Carrefour",
  "city": "Warszawa",
  "address": "Jana Pawła II 65",
  "lat": 52.2229474,
  "lon": 21.2431355,
  "chleb": 6,
  "maslo": 7,
  "ser": 32,
  "jajka": 1,
  "szynka": 33,
  "kielbasa": 16,
  "cukier": 6,
  "mleko": 5,
  "smietana": 7,
  "mineralna": 1
},
{
  "shopName": "Carrefour",
  "city": "Warszawa",
  "address": "Grochowska 255",
  "lat": 52.2456166,
  "lon": 21.0743265,
  "chleb": 7,
  "maslo": 5,
  "ser": 17,
  "jajka": 1,
  "szynka": 34,
  "kielbasa": 20,
  "cukier": 5,
  "mleko": 5,
  "smietana": 8,
  "mineralna": 1
},
{
  "shopName": "Carrefour",
  "city": "Warszawa",
  "address": "Jerozolimskie 25",
  "lat": 52.2303348,
  "lon": 21.0152399,
  "chleb": 5,
  "maslo": 6,
  "ser": 30,
  "jajka": 1,
  "szynka": 27,
  "kielbasa": 18,
  "cukier": 3,
  "mleko": 5,
  "smietana": 5,
  "mineralna": 1
},
{
  "shopName": "Carrefour",
  "city": "Warszawa",
  "address": "Wołoska 12",
  "lat": 52.1794244,
  "lon": 21.0039371,
  "chleb": 5,
  "maslo": 8,
  "ser": 18,
  "jajka": 1,
  "szynka": 39,
  "kielbasa": 17,
  "cukier": 5,
  "mleko": 5,
  "smietana": 7,
  "mineralna": 2
},
{
  "shopName": "Biedronka",
  "city": "Warszawa",
  "address": "Raabego 2C",
  "lat": 52.1385241,
  "lon": 21.0637161,
  "chleb": 5,
  "maslo": 4,
  "ser": 23,
  "jajka": 2,
  "szynka": 36,
  "kielbasa": 16,
  "cukier": 4,
  "mleko": 3,
  "smietana": 7,
  "mineralna": 1
},
{
  "shopName": "Biedronka",
  "city": "Warszawa",
  "address": "Międzynarodowa 68",
  "lat": 52.2392354,
  "lon": 21.0633017,
  "chleb": 7,
  "maslo": 6,
  "ser": 30,
  "jajka": 1,
  "szynka": 38,
  "kielbasa": 16,
  "cukier": 5,
  "mleko": 2,
  "smietana": 7,
  "mineralna": 1
},
{
  "shopName": "Biedronka",
  "city": "Warszawa",
  "address": "Modlińska 158",
  "lat": 52.3189169,
  "lon": 20.9746316,
  "chleb": 4,
  "maslo": 5,
  "ser": 26,
  "jajka": 1,
  "szynka": 29,
  "kielbasa": 19,
  "cukier": 5,
  "mleko": 2,
  "smietana": 5,
  "mineralna": 1
},
{
  "shopName": "Biedronka",
  "city": "Warszawa",
  "address": "Strażacka 104",
  "lat": 52.2588026,
  "lon": 21.155317,
  "chleb": 6,
  "maslo": 5,
  "ser": 17,
  "jajka": 2,
  "szynka": 28,
  "kielbasa": 15,
  "cukier": 4,
  "mleko": 2,
  "smietana": 5,
  "mineralna": 2
},
{
  "shopName": "Carrefour",
  "city": "Warszawa",
  "address": "Bogusławskiego 6A",
  "lat": 52.2766402,
  "lon": 20.917156,
  "chleb": 4,
  "maslo": 6,
  "ser": 18,
  "jajka": 2,
  "szynka": 27,
  "kielbasa": 20,
  "cukier": 5,
  "mleko": 2,
  "smietana": 6,
  "mineralna": 2
},
{
  "shopName": "Biedronka",
  "city": "Warszawa",
  "address": "Karczunkowska 139",
  "lat": 52.1097687,
  "lon": 20.9974289,
  "chleb": 6,
  "maslo": 7,
  "ser": 16,
  "jajka": 2,
  "szynka": 39,
  "kielbasa": 14,
  "cukier": 4,
  "mleko": 2,
  "smietana": 5,
  "mineralna": 2
},
{
  "shopName": "Carrefour",
  "city": "Warszawa",
  "address": "Żaryna 2B",
  "lat": 52.2047794,
  "lon": 20.9959063,
  "chleb": 5,
  "maslo": 8,
  "ser": 21,
  "jajka": 1,
  "szynka": 28,
  "kielbasa": 15,
  "cukier": 6,
  "mleko": 4,
  "smietana": 7,
  "mineralna": 1
},
{
  "shopName": "Carrefour",
  "city": "Warszawa",
  "address": "Conrada 11",
  "lat": 52.2753685,
  "lon": 20.9226838,
  "chleb": 5,
  "maslo": 8,
  "ser": 16,
  "jajka": 1,
  "szynka": 30,
  "kielbasa": 13,
  "cukier": 4,
  "mleko": 4,
  "smietana": 4,
  "mineralna": 2
},
{
  "shopName": "Carrefour",
  "city": "Warszawa",
  "address": "Targowa 72",
  "lat": 52.2548701,
  "lon": 21.037646,
  "chleb": 7,
  "maslo": 4,
  "ser": 18,
  "jajka": 1,
  "szynka": 35,
  "kielbasa": 13,
  "cukier": 5,
  "mleko": 2,
  "smietana": 5,
  "mineralna": 1
},
{
  "shopName": "Biedronka",
  "city": "Warszawa",
  "address": "Jana Kazimierza 12",
  "lat": 52.2262692,
  "lon": 20.94881,
  "chleb": 7,
  "maslo": 7,
  "ser": 21,
  "jajka": 2,
  "szynka": 33,
  "kielbasa": 18,
  "cukier": 6,
  "mleko": 4,
  "smietana": 6,
  "mineralna": 1
},
{
  "shopName": "Biedronka",
  "city": "Warszawa",
  "address": "Aleje Jerozolimskie 54",
  "lat": 52.2288214,
  "lon": 21.0031637,
  "chleb": 6,
  "maslo": 7,
  "ser": 16,
  "jajka": 2,
  "szynka": 38,
  "kielbasa": 19,
  "cukier": 4,
  "mleko": 2,
  "smietana": 6,
  "mineralna": 2
},
{
  "shopName": "Carrefour",
  "city": "Warszawa",
  "address": "Złota 59",
  "lat": 52.2301042,
  "lon": 21.0024595,
  "chleb": 6,
  "maslo": 8,
  "ser": 17,
  "jajka": 1,
  "szynka": 35,
  "kielbasa": 17,
  "cukier": 5,
  "mleko": 5,
  "smietana": 6,
  "mineralna": 2
},
{
  "shopName": "Biedronka",
  "city": "Warszawa",
  "address": "Racławicka 148",
  "lat": 52.1985874,
  "lon": 20.9751173,
  "chleb": 4,
  "maslo": 6,
  "ser": 19,
  "jajka": 1,
  "szynka": 37,
  "kielbasa": 12,
  "cukier": 6,
  "mleko": 5,
  "smietana": 7,
  "mineralna": 1
},
{
  "shopName": "Biedronka",
  "city": "Warszawa",
  "address": "Nowy Świat 68",
  "lat": 52.236817,
  "lon": 21.0181795,
  "chleb": 6,
  "maslo": 5,
  "ser": 16,
  "jajka": 2,
  "szynka": 34,
  "kielbasa": 16,
  "cukier": 4,
  "mleko": 4,
  "smietana": 7,
  "mineralna": 2
},
{
  "shopName": "Carrefour",
  "city": "Warszawa",
  "address": "Woronicza 50",
  "lat": 52.1895449,
  "lon": 21.0183122,
  "chleb": 5,
  "maslo": 8,
  "ser": 23,
  "jajka": 1,
  "szynka": 29,
  "kielbasa": 18,
  "cukier": 6,
  "mleko": 5,
  "smietana": 7,
  "mineralna": 1
},
{
  "shopName": "Carrefour",
  "city": "Warszawa",
  "address": "Francuska 45",
  "lat": 52.2336039,
  "lon": 21.0545551,
  "chleb": 6,
  "maslo": 6,
  "ser": 19,
  "jajka": 1,
  "szynka": 33,
  "kielbasa": 16,
  "cukier": 6,
  "mleko": 2,
  "smietana": 8,
  "mineralna": 1
},
{
  "shopName": "Biedronka",
  "city": "Warszawa",
  "address": "Grzybowska 12/14",
  "lat": 52.2371497,
  "lon": 21.0001686,
  "chleb": 4,
  "maslo": 8,
  "ser": 20,
  "jajka": 2,
  "szynka": 31,
  "kielbasa": 15,
  "cukier": 5,
  "mleko": 4,
  "smietana": 5,
  "mineralna": 1
},
{
  "shopName": "Biedronka",
  "city": "Warszawa",
  "address": "Kijowska 20",
  "lat": 52.2525346,
  "lon": 21.0526783,
  "chleb": 4,
  "maslo": 5,
  "ser": 22,
  "jajka": 2,
  "szynka": 35,
  "kielbasa": 12,
  "cukier": 5,
  "mleko": 2,
  "smietana": 7,
  "mineralna": 1
},
{
  "shopName": "Carrefour",
  "city": "Warszawa",
  "address": "Rakowiecka 2B",
  "lat": 52.2091577,
  "lon": 21.0157182,
  "chleb": 7,
  "maslo": 6,
  "ser": 30,
  "jajka": 2,
  "szynka": 25,
  "kielbasa": 17,
  "cukier": 3,
  "mleko": 4,
  "smietana": 8,
  "mineralna": 1
},
{
  "shopName": "Lidl",
  "city": "Warszawa",
  "address": "Radzymińska 116",
  "lat": 52.2684999,
  "lon": 21.0611905,
  "chleb": 5,
  "maslo": 5,
  "ser": 23,
  "jajka": 2,
  "szynka": 32,
  "kielbasa": 17,
  "cukier": 5,
  "mleko": 5,
  "smietana": 8,
  "mineralna": 2
},
{
  "shopName": "Carrefour",
  "city": "Warszawa",
  "address": "Promenada",
  "lat": 52.2031964,
  "lon": 21.0310593,
  "chleb": 6,
  "maslo": 4,
  "ser": 21,
  "jajka": 2,
  "szynka": 31,
  "kielbasa": 15,
  "cukier": 6,
  "mleko": 2,
  "smietana": 6,
  "mineralna": 2
},
{
  "shopName": "Carrefour",
  "city": "Warszawa",
  "address": "Solec 32/34",
  "lat": 52.2351437,
  "lon": 21.0333825,
  "chleb": 5,
  "maslo": 5,
  "ser": 19,
  "jajka": 1,
  "szynka": 35,
  "kielbasa": 17,
  "cukier": 5,
  "mleko": 5,
  "smietana": 7,
  "mineralna": 2
},
{
  "shopName": "Carrefour",
  "city": "Warszawa",
  "address": "Baonu Zośka 5A",
  "lat": 52.22977,
  "lon": 21.01178,
  "chleb": 7,
  "maslo": 5,
  "ser": 31,
  "jajka": 1,
  "szynka": 34,
  "kielbasa": 17,
  "cukier": 4,
  "mleko": 2,
  "smietana": 8,
  "mineralna": 2
},
{
  "shopName": "Carrefour",
  "city": "Warszawa",
  "address": "Syrokomli 19A",
  "lat": 52.2848701,
  "lon": 21.0261659,
  "chleb": 7,
  "maslo": 6,
  "ser": 18,
  "jajka": 1,
  "szynka": 38,
  "kielbasa": 18,
  "cukier": 6,
  "mleko": 5,
  "smietana": 4,
  "mineralna": 2
},
{
  "shopName": "Carrefour",
  "city": "Warszawa",
  "address": "Stępińska 58",
  "lat": 52.2089324,
  "lon": 21.0376108,
  "chleb": 7,
  "maslo": 4,
  "ser": 16,
  "jajka": 2,
  "szynka": 35,
  "kielbasa": 18,
  "cukier": 6,
  "mleko": 4,
  "smietana": 7,
  "mineralna": 1
},
{
  "shopName": "Carrefour",
  "city": "Warszawa",
  "address": "Syta 120",
  "lat": 52.1710994,
  "lon": 21.1070001,
  "chleb": 4,
  "maslo": 7,
  "ser": 26,
  "jajka": 1,
  "szynka": 30,
  "kielbasa": 20,
  "cukier": 6,
  "mleko": 2,
  "smietana": 4,
  "mineralna": 1
},
{
  "shopName": "Carrefour",
  "city": "Warszawa",
  "address": "Płochocińska 86a",
  "lat": 52.336171,
  "lon": 21.0303451,
  "chleb": 5,
  "maslo": 4,
  "ser": 23,
  "jajka": 2,
  "szynka": 36,
  "kielbasa": 20,
  "cukier": 6,
  "mleko": 2,
  "smietana": 4,
  "mineralna": 1
},
{
  "shopName": "Carrefour",
  "city": "Warszawa",
  "address": "Spisaka 60",
  "lat": 52.1891622,
  "lon": 20.8842205,
  "chleb": 7,
  "maslo": 4,
  "ser": 28,
  "jajka": 1,
  "szynka": 29,
  "kielbasa": 19,
  "cukier": 3,
  "mleko": 5,
  "smietana": 6,
  "mineralna": 1
},
{
  "shopName": "Biedronka",
  "city": "Warszawa",
  "address": "Jerozolimskie 262",
  "lat": 52.2288214,
  "lon": 21.0031637,
  "chleb": 7,
  "maslo": 7,
  "ser": 16,
  "jajka": 1,
  "szynka": 36,
  "kielbasa": 18,
  "cukier": 5,
  "mleko": 2,
  "smietana": 4,
  "mineralna": 1
},
{
  "shopName": "Carrefour",
  "city": "Warszawa",
  "address": "Wojciechowskiego 18",
  "lat": 52.1961627,
  "lon": 20.8785312,
  "chleb": 6,
  "maslo": 7,
  "ser": 23,
  "jajka": 2,
  "szynka": 29,
  "kielbasa": 16,
  "cukier": 6,
  "mleko": 2,
  "smietana": 7,
  "mineralna": 2
},
{
  "shopName": "Biedronka",
  "city": "Warszawa",
  "address": "Kraśnicka 2",
  "lat": 52.2723556,
  "lon": 21.0695352,
  "chleb": 7,
  "maslo": 5,
  "ser": 17,
  "jajka": 1,
  "szynka": 32,
  "kielbasa": 13,
  "cukier": 6,
  "mleko": 5,
  "smietana": 4,
  "mineralna": 1
},
{
  "shopName": "Biedronka",
  "city": "Warszawa",
  "address": "Solec 24",
  "lat": 52.0359476,
  "lon": 21.1088455,
  "chleb": 5,
  "maslo": 4,
  "ser": 32,
  "jajka": 2,
  "szynka": 33,
  "kielbasa": 14,
  "cukier": 6,
  "mleko": 5,
  "smietana": 5,
  "mineralna": 2
},
{
  "shopName": "Carrefour",
  "city": "Warszawa",
  "address": "Powsińska 25",
  "lat": 52.1860603,
  "lon": 21.0636371,
  "chleb": 5,
  "maslo": 6,
  "ser": 22,
  "jajka": 2,
  "szynka": 28,
  "kielbasa": 16,
  "cukier": 4,
  "mleko": 4,
  "smietana": 6,
  "mineralna": 2
},
{
  "shopName": "Carrefour",
  "city": "Warszawa",
  "address": "Rondo ONZ 1",
  "lat": 52.2332742,
  "lon": 20.9987232,
  "chleb": 6,
  "maslo": 7,
  "ser": 20,
  "jajka": 1,
  "szynka": 35,
  "kielbasa": 17,
  "cukier": 6,
  "mleko": 3,
  "smietana": 7,
  "mineralna": 2
},
{
  "shopName": "Carrefour",
  "city": "Warszawa",
  "address": "Berensona 12B",
  "lat": 52.3241718,
  "lon": 21.0561564,
  "chleb": 7,
  "maslo": 6,
  "ser": 31,
  "jajka": 1,
  "szynka": 33,
  "kielbasa": 17,
  "cukier": 4,
  "mleko": 2,
  "smietana": 7,
  "mineralna": 2
},
{
  "shopName": "Biedronka",
  "city": "Warszawa",
  "address": "Kuchy 24",
  "lat": 52.1964444,
  "lon": 20.8853672,
  "chleb": 7,
  "maslo": 8,
  "ser": 26,
  "jajka": 1,
  "szynka": 35,
  "kielbasa": 14,
  "cukier": 4,
  "mleko": 5,
  "smietana": 4,
  "mineralna": 1
},
{
  "shopName": "Lidl",
  "city": "Warszawa",
  "address": "Wolska 19/25",
  "lat": 52.2348907,
  "lon": 20.9761282,
  "chleb": 4,
  "maslo": 8,
  "ser": 16,
  "jajka": 2,
  "szynka": 38,
  "kielbasa": 17,
  "cukier": 4,
  "mleko": 5,
  "smietana": 4,
  "mineralna": 1
},
{
  "shopName": "Carrefour",
  "city": "Warszawa",
  "address": "Zwycięzców 4",
  "lat": 52.2304166,
  "lon": 21.0520553,
  "chleb": 6,
  "maslo": 6,
  "ser": 28,
  "jajka": 1,
  "szynka": 30,
  "kielbasa": 17,
  "cukier": 3,
  "mleko": 4,
  "smietana": 8,
  "mineralna": 1
},
{
  "shopName": "Carrefour",
  "city": "Warszawa",
  "address": "Św. Wincentego 114",
  "lat": 52.2725185,
  "lon": 21.0429748,
  "chleb": 6,
  "maslo": 5,
  "ser": 25,
  "jajka": 1,
  "szynka": 32,
  "kielbasa": 14,
  "cukier": 5,
  "mleko": 3,
  "smietana": 8,
  "mineralna": 1
},
{
  "shopName": "Biedronka",
  "city": "Warszawa",
  "address": "Leszno 15",
  "lat": 52.2375305,
  "lon": 20.9754098,
  "chleb": 7,
  "maslo": 6,
  "ser": 18,
  "jajka": 2,
  "szynka": 26,
  "kielbasa": 13,
  "cukier": 4,
  "mleko": 5,
  "smietana": 6,
  "mineralna": 2
},
{
  "shopName": "Tesco",
  "city": "Warszawa",
  "address": "al. KEN 14",
  "lat": 52.1467574,
  "lon": 21.0502804,
  "chleb": 6,
  "maslo": 7,
  "ser": 28,
  "jajka": 2,
  "szynka": 30,
  "kielbasa": 15,
  "cukier": 4,
  "mleko": 2,
  "smietana": 8,
  "mineralna": 1
},
{
  "shopName": "Carrefour",
  "city": "Warszawa",
  "address": "Rembielińska 7",
  "lat": 52.2858829,
  "lon": 21.0314244,
  "chleb": 6,
  "maslo": 6,
  "ser": 16,
  "jajka": 1,
  "szynka": 37,
  "kielbasa": 13,
  "cukier": 3,
  "mleko": 3,
  "smietana": 6,
  "mineralna": 1
},
{
  "shopName": "Carrefour",
  "city": "Warszawa",
  "address": "Wyścigowa 4",
  "lat": 52.16579,
  "lon": 21.0149425,
  "chleb": 6,
  "maslo": 5,
  "ser": 18,
  "jajka": 1,
  "szynka": 32,
  "kielbasa": 13,
  "cukier": 4,
  "mleko": 2,
  "smietana": 7,
  "mineralna": 1
},
{
  "shopName": "Carrefour",
  "city": "Warszawa",
  "address": "Jana Pawła II 82",
  "lat": 52.2166708,
  "lon": 21.2259762,
  "chleb": 5,
  "maslo": 7,
  "ser": 23,
  "jajka": 2,
  "szynka": 26,
  "kielbasa": 19,
  "cukier": 6,
  "mleko": 2,
  "smietana": 7,
  "mineralna": 2
},
{
  "shopName": "Carrefour",
  "city": "Warszawa",
  "address": "Sobieskiego 70B",
  "lat": 52.1852284,
  "lon": 21.0531068,
  "chleb": 4,
  "maslo": 6,
  "ser": 25,
  "jajka": 2,
  "szynka": 35,
  "kielbasa": 13,
  "cukier": 6,
  "mleko": 3,
  "smietana": 7,
  "mineralna": 1
},
{
  "shopName": "Biedronka",
  "city": "Warszawa",
  "address": "Tamka 40",
  "lat": 52.2366041,
  "lon": 21.0215796,
  "chleb": 7,
  "maslo": 5,
  "ser": 22,
  "jajka": 2,
  "szynka": 39,
  "kielbasa": 18,
  "cukier": 3,
  "mleko": 2,
  "smietana": 5,
  "mineralna": 2
},
{
  "shopName": "Carrefour",
  "city": "Warszawa",
  "address": "Puławska 30",
  "lat": 52.2052902,
  "lon": 21.0224107,
  "chleb": 5,
  "maslo": 8,
  "ser": 31,
  "jajka": 1,
  "szynka": 30,
  "kielbasa": 19,
  "cukier": 3,
  "mleko": 4,
  "smietana": 4,
  "mineralna": 1
},
{
  "shopName": "Carrefour",
  "city": "Warszawa",
  "address": "Wrzeciono 41",
  "lat": 52.2961317,
  "lon": 20.9404721,
  "chleb": 4,
  "maslo": 4,
  "ser": 30,
  "jajka": 2,
  "szynka": 37,
  "kielbasa": 20,
  "cukier": 4,
  "mleko": 5,
  "smietana": 5,
  "mineralna": 2
},
{
  "shopName": "Carrefour",
  "city": "Warszawa",
  "address": "Zagórna 16",
  "lat": 52.22637,
  "lon": 21.0399136,
  "chleb": 6,
  "maslo": 6,
  "ser": 20,
  "jajka": 2,
  "szynka": 26,
  "kielbasa": 14,
  "cukier": 5,
  "mleko": 3,
  "smietana": 4,
  "mineralna": 1
},
{
  "shopName": "Carrefour",
  "city": "Warszawa",
  "address": "Targowa 76",
  "lat": 52.2557774,
  "lon": 21.0344127,
  "chleb": 4,
  "maslo": 6,
  "ser": 17,
  "jajka": 2,
  "szynka": 31,
  "kielbasa": 12,
  "cukier": 5,
  "mleko": 2,
  "smietana": 6,
  "mineralna": 1
},
{
  "shopName": "Carrefour",
  "city": "Warszawa",
  "address": "Arkadia",
  "lat": 52.25723,
  "lon": 20.9845735,
  "chleb": 6,
  "maslo": 8,
  "ser": 32,
  "jajka": 1,
  "szynka": 30,
  "kielbasa": 16,
  "cukier": 4,
  "mleko": 3,
  "smietana": 7,
  "mineralna": 1
},
{
  "shopName": "Carrefour",
  "city": "Warszawa",
  "address": "Wojska Polskiego 60",
  "lat": 52.257304,
  "lon": 21.2299804,
  "chleb": 7,
  "maslo": 8,
  "ser": 31,
  "jajka": 2,
  "szynka": 33,
  "kielbasa": 12,
  "cukier": 4,
  "mleko": 4,
  "smietana": 5,
  "mineralna": 1
},
{
  "shopName": "Carrefour",
  "city": "Warszawa",
  "address": "Wolska 109",
  "lat": 52.230302,
  "lon": 20.9549541,
  "chleb": 4,
  "maslo": 7,
  "ser": 22,
  "jajka": 1,
  "szynka": 25,
  "kielbasa": 13,
  "cukier": 3,
  "mleko": 5,
  "smietana": 7,
  "mineralna": 2
},
{
  "shopName": "Carrefour",
  "city": "Warszawa",
  "address": "Waryńskiego 26",
  "lat": 52.2204691,
  "lon": 21.016038,
  "chleb": 7,
  "maslo": 5,
  "ser": 19,
  "jajka": 2,
  "szynka": 39,
  "kielbasa": 15,
  "cukier": 4,
  "mleko": 4,
  "smietana": 7,
  "mineralna": 1
},
{
  "shopName": "Carrefour",
  "city": "Warszawa",
  "address": "Szanajcy",
  "lat": 52.2623709,
  "lon": 21.027802,
  "chleb": 6,
  "maslo": 4,
  "ser": 25,
  "jajka": 1,
  "szynka": 38,
  "kielbasa": 12,
  "cukier": 6,
  "mleko": 2,
  "smietana": 5,
  "mineralna": 2
},
{
  "shopName": "Carrefour",
  "city": "Warszawa",
  "address": "Wołoska 88",
  "lat": 52.2013914,
  "lon": 21.0008894,
  "chleb": 7,
  "maslo": 7,
  "ser": 20,
  "jajka": 2,
  "szynka": 40,
  "kielbasa": 18,
  "cukier": 6,
  "mleko": 4,
  "smietana": 7,
  "mineralna": 1
},
{
  "shopName": "Carrefour",
  "city": "Warszawa",
  "address": "Szymanowskiego 8",
  "lat": 52.2623938,
  "lon": 21.0335284,
  "chleb": 5,
  "maslo": 7,
  "ser": 16,
  "jajka": 2,
  "szynka": 25,
  "kielbasa": 12,
  "cukier": 6,
  "mleko": 4,
  "smietana": 6,
  "mineralna": 2
},
{
  "shopName": "Carrefour",
  "city": "Warszawa",
  "address": "Bytnara 13",
  "lat": 52.1928644,
  "lon": 21.0081905,
  "chleb": 6,
  "maslo": 5,
  "ser": 27,
  "jajka": 2,
  "szynka": 40,
  "kielbasa": 16,
  "cukier": 4,
  "mleko": 2,
  "smietana": 7,
  "mineralna": 2
},
{
  "shopName": "Carrefour",
  "city": "Warszawa",
  "address": "Gagarina 2",
  "lat": 52.2075183,
  "lon": 21.0475354,
  "chleb": 4,
  "maslo": 5,
  "ser": 29,
  "jajka": 1,
  "szynka": 25,
  "kielbasa": 12,
  "cukier": 3,
  "mleko": 2,
  "smietana": 6,
  "mineralna": 2
},
{
  "shopName": "Carrefour",
  "city": "Warszawa",
  "address": "Żelazna 58/62",
  "lat": 52.2351157,
  "lon": 20.9907996,
  "chleb": 6,
  "maslo": 4,
  "ser": 32,
  "jajka": 2,
  "szynka": 29,
  "kielbasa": 14,
  "cukier": 5,
  "mleko": 2,
  "smietana": 8,
  "mineralna": 2
},
{
  "shopName": "Carrefour",
  "city": "Warszawa",
  "address": "Targowa 64",
  "lat": 52.2525268,
  "lon": 21.0377332,
  "chleb": 5,
  "maslo": 5,
  "ser": 32,
  "jajka": 2,
  "szynka": 30,
  "kielbasa": 19,
  "cukier": 4,
  "mleko": 4,
  "smietana": 5,
  "mineralna": 2
},
{
  "shopName": "Tesco",
  "city": "Warszawa",
  "address": "Fabryczna 82",
  "lat": 52.224861,
  "lon": 21.0416599,
  "chleb": 7,
  "maslo": 8,
  "ser": 26,
  "jajka": 2,
  "szynka": 30,
  "kielbasa": 15,
  "cukier": 3,
  "mleko": 2,
  "smietana": 5,
  "mineralna": 1
},
{
  "shopName": "Carrefour",
  "city": "Warszawa",
  "address": "Wspólna 73",
  "lat": 52.2256587,
  "lon": 21.0072108,
  "chleb": 6,
  "maslo": 8,
  "ser": 29,
  "jajka": 2,
  "szynka": 27,
  "kielbasa": 19,
  "cukier": 5,
  "mleko": 4,
  "smietana": 5,
  "mineralna": 1
},
{
  "shopName": "Biedronka",
  "city": "Warszawa",
  "address": "Grójecka 194",
  "lat": 52.2005843,
  "lon": 20.9667234,
  "chleb": 5,
  "maslo": 7,
  "ser": 28,
  "jajka": 1,
  "szynka": 30,
  "kielbasa": 12,
  "cukier": 3,
  "mleko": 3,
  "smietana": 8,
  "mineralna": 1
},
{
  "shopName": "Lidl",
  "city": "Warszawa",
  "address": "Piłsudskiego 83",
  "lat": 52.1395268,
  "lon": 21.0121403,
  "chleb": 4,
  "maslo": 8,
  "ser": 18,
  "jajka": 2,
  "szynka": 28,
  "kielbasa": 13,
  "cukier": 5,
  "mleko": 5,
  "smietana": 7,
  "mineralna": 2
},
{
  "shopName": "Carrefour",
  "city": "Warszawa",
  "address": "Puławska 38",
  "lat": 52.2042064,
  "lon": 21.0225802,
  "chleb": 7,
  "maslo": 7,
  "ser": 23,
  "jajka": 2,
  "szynka": 34,
  "kielbasa": 14,
  "cukier": 4,
  "mleko": 4,
  "smietana": 4,
  "mineralna": 1
},
{
  "shopName": "Carrefour",
  "city": "Warszawa",
  "address": "Powstańców Śląskich 106",
  "lat": 52.2551765,
  "lon": 20.9189022,
  "chleb": 6,
  "maslo": 4,
  "ser": 22,
  "jajka": 1,
  "szynka": 31,
  "kielbasa": 16,
  "cukier": 5,
  "mleko": 5,
  "smietana": 8,
  "mineralna": 1
},
{
  "shopName": "Carrefour",
  "city": "Warszawa",
  "address": "Nowy świat 26",
  "lat": 52.2328929,
  "lon": 21.0199037,
  "chleb": 5,
  "maslo": 8,
  "ser": 26,
  "jajka": 1,
  "szynka": 30,
  "kielbasa": 15,
  "cukier": 5,
  "mleko": 2,
  "smietana": 4,
  "mineralna": 2
},
{
  "shopName": "Carrefour",
  "city": "Warszawa",
  "address": "Przymierza 6",
  "lat": 52.2306723,
  "lon": 21.0567524,
  "chleb": 7,
  "maslo": 7,
  "ser": 31,
  "jajka": 2,
  "szynka": 30,
  "kielbasa": 15,
  "cukier": 4,
  "mleko": 3,
  "smietana": 7,
  "mineralna": 2
},
{
  "shopName": "Carrefour",
  "city": "Warszawa",
  "address": "Ciołka 19/25",
  "lat": 52.2437494,
  "lon": 20.9439945,
  "chleb": 6,
  "maslo": 4,
  "ser": 19,
  "jajka": 2,
  "szynka": 36,
  "kielbasa": 12,
  "cukier": 4,
  "mleko": 2,
  "smietana": 4,
  "mineralna": 1
},
{
  "shopName": "Carrefour",
  "city": "Warszawa",
  "address": "Okrężna 7",
  "lat": 52.1850039,
  "lon": 21.0676114,
  "chleb": 5,
  "maslo": 4,
  "ser": 17,
  "jajka": 2,
  "szynka": 30,
  "kielbasa": 15,
  "cukier": 5,
  "mleko": 4,
  "smietana": 4,
  "mineralna": 1
},
{
  "shopName": "Carrefour",
  "city": "Warszawa",
  "address": "Puławska 52",
  "lat": 52.2022392,
  "lon": 21.0230319,
  "chleb": 7,
  "maslo": 5,
  "ser": 22,
  "jajka": 2,
  "szynka": 39,
  "kielbasa": 18,
  "cukier": 6,
  "mleko": 4,
  "smietana": 6,
  "mineralna": 1
},
{
  "shopName": "Carrefour",
  "city": "Warszawa",
  "address": "Okopowa 29b",
  "lat": 52.2407873,
  "lon": 20.9771414,
  "chleb": 4,
  "maslo": 5,
  "ser": 27,
  "jajka": 1,
  "szynka": 36,
  "kielbasa": 15,
  "cukier": 5,
  "mleko": 4,
  "smietana": 6,
  "mineralna": 2
},
{
  "shopName": "Carrefour",
  "city": "Warszawa",
  "address": "Nowolipki 25",
  "lat": 52.2428038,
  "lon": 20.9857769,
  "chleb": 4,
  "maslo": 8,
  "ser": 24,
  "jajka": 1,
  "szynka": 40,
  "kielbasa": 13,
  "cukier": 6,
  "mleko": 5,
  "smietana": 8,
  "mineralna": 2
},
{
  "shopName": "Carrefour",
  "city": "Warszawa",
  "address": "Krakowskie Przedmieście 19",
  "lat": 52.2432247,
  "lon": 21.014268,
  "chleb": 5,
  "maslo": 5,
  "ser": 22,
  "jajka": 1,
  "szynka": 33,
  "kielbasa": 19,
  "cukier": 4,
  "mleko": 3,
  "smietana": 7,
  "mineralna": 2
},
{
  "shopName": "Carrefour",
  "city": "Warszawa",
  "address": "Mielczarskiego 10",
  "lat": 52.1294779,
  "lon": 21.0608023,
  "chleb": 5,
  "maslo": 8,
  "ser": 16,
  "jajka": 1,
  "szynka": 32,
  "kielbasa": 13,
  "cukier": 6,
  "mleko": 3,
  "smietana": 8,
  "mineralna": 1
},
{
  "shopName": "Lidl",
  "city": "Warszawa",
  "address": "Warszawska 214/216",
  "lat": 52.1986501,
  "lon": 20.8721295,
  "chleb": 7,
  "maslo": 7,
  "ser": 32,
  "jajka": 1,
  "szynka": 39,
  "kielbasa": 17,
  "cukier": 3,
  "mleko": 5,
  "smietana": 6,
  "mineralna": 1
},
{
  "shopName": "Biedronka",
  "city": "Warszawa",
  "address": "Wyki 11B",
  "lat": 52.2296738,
  "lon": 20.9017359,
  "chleb": 4,
  "maslo": 4,
  "ser": 17,
  "jajka": 1,
  "szynka": 26,
  "kielbasa": 14,
  "cukier": 4,
  "mleko": 5,
  "smietana": 5,
  "mineralna": 2
},
{
  "shopName": "Carrefour",
  "city": "Warszawa",
  "address": "Kadetów 20 lok. 1",
  "lat": 52.211935,
  "lon": 21.105468,
  "chleb": 5,
  "maslo": 7,
  "ser": 19,
  "jajka": 1,
  "szynka": 38,
  "kielbasa": 15,
  "cukier": 6,
  "mleko": 4,
  "smietana": 8,
  "mineralna": 1
},
{
  "shopName": "Carrefour",
  "city": "Warszawa",
  "address": "Koszykowa 1",
  "lat": 52.2202883,
  "lon": 21.0232357,
  "chleb": 7,
  "maslo": 6,
  "ser": 24,
  "jajka": 1,
  "szynka": 39,
  "kielbasa": 15,
  "cukier": 6,
  "mleko": 4,
  "smietana": 4,
  "mineralna": 2
},
{
  "shopName": "Carrefour",
  "city": "Warszawa",
  "address": "Wąski Dunaj 10",
  "lat": 52.2495885,
  "lon": 21.0107073,
  "chleb": 7,
  "maslo": 6,
  "ser": 23,
  "jajka": 2,
  "szynka": 34,
  "kielbasa": 20,
  "cukier": 5,
  "mleko": 4,
  "smietana": 6,
  "mineralna": 1
},
{
  "shopName": "Carrefour",
  "city": "Warszawa",
  "address": "Garibaldiego 4",
  "lat": 52.2435385,
  "lon": 21.0838105,
  "chleb": 6,
  "maslo": 4,
  "ser": 23,
  "jajka": 1,
  "szynka": 36,
  "kielbasa": 18,
  "cukier": 5,
  "mleko": 3,
  "smietana": 5,
  "mineralna": 2
},
{
  "shopName": "Carrefour",
  "city": "Warszawa",
  "address": "Jerozolimskie 57",
  "lat": 52.2284037,
  "lon": 21.0062816,
  "chleb": 7,
  "maslo": 5,
  "ser": 18,
  "jajka": 1,
  "szynka": 35,
  "kielbasa": 16,
  "cukier": 6,
  "mleko": 4,
  "smietana": 4,
  "mineralna": 2
},
{
  "shopName": "Carrefour",
  "city": "Warszawa",
  "address": "Koźmińska 16",
  "lat": 52.2261064,
  "lon": 21.0367594,
  "chleb": 5,
  "maslo": 4,
  "ser": 22,
  "jajka": 2,
  "szynka": 29,
  "kielbasa": 15,
  "cukier": 3,
  "mleko": 3,
  "smietana": 8,
  "mineralna": 2
},
{
  "shopName": "Carrefour",
  "city": "Warszawa",
  "address": "Kluczborska 1",
  "lat": 52.2423641,
  "lon": 20.9225057,
  "chleb": 6,
  "maslo": 7,
  "ser": 16,
  "jajka": 1,
  "szynka": 29,
  "kielbasa": 15,
  "cukier": 6,
  "mleko": 2,
  "smietana": 7,
  "mineralna": 2
},
{
  "shopName": "Carrefour",
  "city": "Warszawa",
  "address": "Głębocka 15",
  "lat": 52.3043774,
  "lon": 21.057214,
  "chleb": 7,
  "maslo": 4,
  "ser": 20,
  "jajka": 2,
  "szynka": 33,
  "kielbasa": 19,
  "cukier": 5,
  "mleko": 4,
  "smietana": 8,
  "mineralna": 2
},
{
  "shopName": "Tesco",
  "city": "Warszawa",
  "address": "Szolc-Rogozińskiego 1",
  "lat": 52.1499062,
  "lon": 21.0521024,
  "chleb": 5,
  "maslo": 6,
  "ser": 23,
  "jajka": 2,
  "szynka": 34,
  "kielbasa": 19,
  "cukier": 5,
  "mleko": 5,
  "smietana": 7,
  "mineralna": 2
},
{
  "shopName": "Biedronka",
  "city": "Warszawa",
  "address": "Saska 12",
  "lat": 52.2269523,
  "lon": 21.0644453,
  "chleb": 5,
  "maslo": 7,
  "ser": 26,
  "jajka": 2,
  "szynka": 37,
  "kielbasa": 16,
  "cukier": 4,
  "mleko": 4,
  "smietana": 4,
  "mineralna": 1
},
{
  "shopName": "Carrefour",
  "city": "Warszawa",
  "address": "Madalińskiego 53",
  "lat": 52.2035417,
  "lon": 21.012122,
  "chleb": 4,
  "maslo": 5,
  "ser": 16,
  "jajka": 1,
  "szynka": 34,
  "kielbasa": 19,
  "cukier": 6,
  "mleko": 2,
  "smietana": 5,
  "mineralna": 2
},
{
  "shopName": "Carrefour",
  "city": "Warszawa",
  "address": "Kostrzewskiego",
  "lat": 52.1970937,
  "lon": 21.0393332,
  "chleb": 4,
  "maslo": 6,
  "ser": 32,
  "jajka": 1,
  "szynka": 26,
  "kielbasa": 17,
  "cukier": 3,
  "mleko": 5,
  "smietana": 7,
  "mineralna": 2
},
{
  "shopName": "Carrefour",
  "city": "Warszawa",
  "address": "Krakowskie Przedmieście 8",
  "lat": 52.2386847,
  "lon": 21.0178843,
  "chleb": 5,
  "maslo": 4,
  "ser": 30,
  "jajka": 2,
  "szynka": 27,
  "kielbasa": 20,
  "cukier": 4,
  "mleko": 5,
  "smietana": 5,
  "mineralna": 1
},
{
  "shopName": "Biedronka",
  "city": "Warszawa",
  "address": "Wydawnicza 56/58",
  "lat": 52.2261768,
  "lon": 21.1475183,
  "chleb": 6,
  "maslo": 5,
  "ser": 32,
  "jajka": 1,
  "szynka": 35,
  "kielbasa": 18,
  "cukier": 3,
  "mleko": 5,
  "smietana": 6,
  "mineralna": 1
},
{
  "shopName": "Carrefour",
  "city": "Warszawa",
  "address": "Zawiszy 5",
  "lat": 52.2429997,
  "lon": 20.9635001,
  "chleb": 6,
  "maslo": 5,
  "ser": 31,
  "jajka": 1,
  "szynka": 27,
  "kielbasa": 15,
  "cukier": 4,
  "mleko": 3,
  "smietana": 7,
  "mineralna": 2
},
{
  "shopName": "Carrefour",
  "city": "Warszawa",
  "address": "Wrzeciono 2",
  "lat": 52.2877907,
  "lon": 20.941909,
  "chleb": 7,
  "maslo": 8,
  "ser": 30,
  "jajka": 2,
  "szynka": 36,
  "kielbasa": 13,
  "cukier": 6,
  "mleko": 3,
  "smietana": 7,
  "mineralna": 1
},
{
  "shopName": "Carrefour",
  "city": "Warszawa",
  "address": "Ostrobramska 73c",
  "lat": 52.2316691,
  "lon": 21.1152528,
  "chleb": 6,
  "maslo": 7,
  "ser": 21,
  "jajka": 2,
  "szynka": 31,
  "kielbasa": 15,
  "cukier": 5,
  "mleko": 3,
  "smietana": 8,
  "mineralna": 1
},
{
  "shopName": "Carrefour",
  "city": "Warszawa",
  "address": "Plac Bankowy 4 / Senatorska 40",
  "lat": 52.22977,
  "lon": 21.01178,
  "chleb": 5,
  "maslo": 4,
  "ser": 16,
  "jajka": 1,
  "szynka": 38,
  "kielbasa": 15,
  "cukier": 3,
  "mleko": 5,
  "smietana": 6,
  "mineralna": 1
},
{
  "shopName": "Carrefour",
  "city": "Warszawa",
  "address": "Międzynarodowa 31",
  "lat": 52.2303223,
  "lon": 21.0679306,
  "chleb": 7,
  "maslo": 5,
  "ser": 26,
  "jajka": 1,
  "szynka": 40,
  "kielbasa": 16,
  "cukier": 3,
  "mleko": 5,
  "smietana": 4,
  "mineralna": 1
},
{
  "shopName": "Carrefour",
  "city": "Warszawa",
  "address": "Majdańska 9",
  "lat": 52.2402145,
  "lon": 21.0841835,
  "chleb": 5,
  "maslo": 7,
  "ser": 31,
  "jajka": 2,
  "szynka": 40,
  "kielbasa": 13,
  "cukier": 6,
  "mleko": 5,
  "smietana": 4,
  "mineralna": 1
},
{
  "shopName": "Carrefour",
  "city": "Warszawa",
  "address": "Łucka 20",
  "lat": 52.2325692,
  "lon": 20.986276,
  "chleb": 7,
  "maslo": 6,
  "ser": 21,
  "jajka": 2,
  "szynka": 25,
  "kielbasa": 14,
  "cukier": 3,
  "mleko": 5,
  "smietana": 8,
  "mineralna": 1
},
{
  "shopName": "Carrefour",
  "city": "Warszawa",
  "address": "Marszałkowska 2",
  "lat": 52.2143171,
  "lon": 21.0214456,
  "chleb": 7,
  "maslo": 4,
  "ser": 20,
  "jajka": 1,
  "szynka": 38,
  "kielbasa": 13,
  "cukier": 4,
  "mleko": 3,
  "smietana": 5,
  "mineralna": 1
},
{
  "shopName": "Carrefour",
  "city": "Warszawa",
  "address": "Ks. Janusza 23",
  "lat": 52.2314582,
  "lon": 21.012048,
  "chleb": 5,
  "maslo": 5,
  "ser": 28,
  "jajka": 2,
  "szynka": 37,
  "kielbasa": 20,
  "cukier": 6,
  "mleko": 4,
  "smietana": 7,
  "mineralna": 1
},
{
  "shopName": "Carrefour",
  "city": "Warszawa",
  "address": "Marokańska 16",
  "lat": 52.2233975,
  "lon": 21.0725196,
  "chleb": 4,
  "maslo": 7,
  "ser": 21,
  "jajka": 1,
  "szynka": 40,
  "kielbasa": 18,
  "cukier": 4,
  "mleko": 2,
  "smietana": 7,
  "mineralna": 2
},
{
  "shopName": "Carrefour",
  "city": "Warszawa",
  "address": "Krakowskie Przedmieście 85",
  "lat": 52.2465489,
  "lon": 21.0131976,
  "chleb": 5,
  "maslo": 7,
  "ser": 25,
  "jajka": 2,
  "szynka": 32,
  "kielbasa": 17,
  "cukier": 4,
  "mleko": 5,
  "smietana": 6,
  "mineralna": 1
},
{
  "shopName": "Carrefour",
  "city": "Warszawa",
  "address": "Międzyborska 57/65",
  "lat": 52.2392165,
  "lon": 21.0795533,
  "chleb": 4,
  "maslo": 5,
  "ser": 22,
  "jajka": 1,
  "szynka": 30,
  "kielbasa": 19,
  "cukier": 3,
  "mleko": 5,
  "smietana": 6,
  "mineralna": 2
},
{
  "shopName": "Tesco",
  "city": "Warszawa",
  "address": "Estrady 13 K",
  "lat": 52.2944279,
  "lon": 20.8774847,
  "chleb": 5,
  "maslo": 6,
  "ser": 31,
  "jajka": 2,
  "szynka": 37,
  "kielbasa": 13,
  "cukier": 6,
  "mleko": 2,
  "smietana": 8,
  "mineralna": 1
},
{
  "shopName": "Carrefour",
  "city": "Warszawa",
  "address": "Konarskiego 86",
  "lat": 52.2397056,
  "lon": 20.9171649,
  "chleb": 6,
  "maslo": 7,
  "ser": 30,
  "jajka": 1,
  "szynka": 26,
  "kielbasa": 16,
  "cukier": 3,
  "mleko": 4,
  "smietana": 7,
  "mineralna": 1
},
{
  "shopName": "Tesco",
  "city": "Warszawa",
  "address": "Wolska 71/73",
  "lat": 52.2325679,
  "lon": 20.9634353,
  "chleb": 4,
  "maslo": 8,
  "ser": 30,
  "jajka": 2,
  "szynka": 29,
  "kielbasa": 12,
  "cukier": 5,
  "mleko": 2,
  "smietana": 5,
  "mineralna": 1
},